[
  {
    "name": "(bus stop)to attingal",
    "lat": "8.7621447",
    "lon": "76.791667"
  },
  {
    "name": "1-ാം മൈൽ",
    "lat": "9.6186769",
    "lon": "77.1577139"
  },
  {
    "name": "10-ാം മൈൽ",
    "lat": "9.8187226",
    "lon": "77.0252887"
  },
  {
    "name": "1000 Acre",
    "lat": "9.999128",
    "lon": "76.997235"
  },
  {
    "name": "1000 ഏക്കർ",
    "lat": "9.999128",
    "lon": "76.997235"
  },
  {
    "name": "1008 Junction",
    "lat": "9.8550676",
    "lon": "76.3258864"
  },
  {
    "name": "10th Mile",
    "lat": "9.6818465",
    "lon": "77.1465089"
  },
  {
    "name": "10th Mile Bus Stop",
    "lat": "9.8186111",
    "lon": "77.0247897"
  },
  {
    "name": "10th Stone Bus Stop",
    "lat": "8.5900626",
    "lon": "76.9956012"
  },
  {
    "name": "11",
    "lat": "11.3925836",
    "lon": "75.8245763"
  },
  {
    "name": "11 Stone Bus Stop",
    "lat": "8.6040542",
    "lon": "76.99798"
  },
  {
    "name": "11 Stone to Thiruvananthapuram Bus Stop",
    "lat": "8.6037624",
    "lon": "76.9977819"
  },
  {
    "name": "11/2",
    "lat": "11.395774",
    "lon": "75.8258337"
  },
  {
    "name": "11/4",
    "lat": "11.3995553",
    "lon": "75.827444"
  },
  {
    "name": "110 KV Substation,Paripally",
    "lat": "8.8135051",
    "lon": "76.7753275"
  },
  {
    "name": "11th Mile",
    "lat": "9.6551138",
    "lon": "76.3373999"
  },
  {
    "name": "12 Mile Bus Stop",
    "lat": "9.6979318",
    "lon": "76.6852266"
  },
  {
    "name": "12-ാം മൈൽ",
    "lat": "9.799476",
    "lon": "76.842085"
  },
  {
    "name": "12th Mile",
    "lat": "9.6986535",
    "lon": "76.6854877"
  },
  {
    "name": "14th Mile",
    "lat": "10.033994",
    "lon": "76.892989"
  },
  {
    "name": "14thmile Bus Stop",
    "lat": "9.1631701",
    "lon": "76.7038792"
  },
  {
    "name": "15-ൽ കടവ്",
    "lat": "9.5702029",
    "lon": "76.4926364"
  },
  {
    "name": "16th MIleStone Bus Stop",
    "lat": "8.642346",
    "lon": "76.8437054"
  },
  {
    "name": "16th Stone",
    "lat": "8.6350057",
    "lon": "77.0318614"
  },
  {
    "name": "17mile",
    "lat": "9.5672654",
    "lon": "76.7144253"
  },
  {
    "name": "17th mile bus stop",
    "lat": "9.5672665",
    "lon": "76.714764"
  },
  {
    "name": "18 mile",
    "lat": "9.5694239",
    "lon": "76.7202078"
  },
  {
    "name": "19th Mile",
    "lat": "9.5642523",
    "lon": "76.7355465"
  },
  {
    "name": "19th mile",
    "lat": "11.941975",
    "lon": "75.5997024"
  },
  {
    "name": "1st Mile",
    "lat": "9.5786099",
    "lon": "76.7440394"
  },
  {
    "name": "2-ാം മൈൽ",
    "lat": "9.62584",
    "lon": "77.1641207"
  },
  {
    "name": "20 Acre",
    "lat": "10.015561",
    "lon": "77.076066"
  },
  {
    "name": "200 Acre",
    "lat": "9.974871",
    "lon": "76.96482"
  },
  {
    "name": "20th Mile",
    "lat": "9.5650373",
    "lon": "76.7463181"
  },
  {
    "name": "21st mile",
    "lat": "11.9469513",
    "lon": "75.6253151"
  },
  {
    "name": "23 Junction",
    "lat": "9.1262358",
    "lon": "76.8179369"
  },
  {
    "name": "23 junction bus stop",
    "lat": "9.1262221",
    "lon": "76.817711"
  },
  {
    "name": "26",
    "lat": "10.8852",
    "lon": "76.331"
  },
  {
    "name": "26 Mile Bus Stop",
    "lat": "9.5609335",
    "lon": "76.8113637"
  },
  {
    "name": "28-ാം മൈല്‍",
    "lat": "11.5294462",
    "lon": "75.888489"
  },
  {
    "name": "28th Mile",
    "lat": "11.5295341",
    "lon": "75.8884055"
  },
  {
    "name": "28th mile",
    "lat": "8.7871092",
    "lon": "76.7775225"
  },
  {
    "name": "2nd Mile",
    "lat": "9.5901795",
    "lon": "76.7387003"
  },
  {
    "name": "3-ാം മൈൽ",
    "lat": "9.6355523",
    "lon": "77.1638268"
  },
  {
    "name": "31/456 Kolangarakattil House",
    "lat": "10.7783498",
    "lon": "75.9349944"
  },
  {
    "name": "31/456 കൊളങ്ങരക്കാട്ടിൽ ഹൗസ്",
    "lat": "10.7783498",
    "lon": "75.9349944"
  },
  {
    "name": "34 ST Colony",
    "lat": "11.3918907",
    "lon": "76.2795515"
  },
  {
    "name": "34-ാം മൈൽ",
    "lat": "9.5384181",
    "lon": "76.8931276"
  },
  {
    "name": "34th Mile",
    "lat": "9.5384181",
    "lon": "76.8931276"
  },
  {
    "name": "34th Mile Junction",
    "lat": "9.5384771",
    "lon": "76.8899907"
  },
  {
    "name": "35-ാം മൈൽ",
    "lat": "9.5380143",
    "lon": "76.9022875"
  },
  {
    "name": "35th Mile",
    "lat": "9.5380143",
    "lon": "76.9022875"
  },
  {
    "name": "35th Mile Junction",
    "lat": "9.5375206",
    "lon": "76.902442"
  },
  {
    "name": "39",
    "lat": "11.9499138",
    "lon": "75.4717306"
  },
  {
    "name": "3rd Mile",
    "lat": "9.6355523",
    "lon": "77.1638268"
  },
  {
    "name": "3rd Mile Bus Stop",
    "lat": "9.6535064",
    "lon": "76.9933167"
  },
  {
    "name": "3rd mile bus stop",
    "lat": "9.6125323",
    "lon": "76.7751559"
  },
  {
    "name": "4 Cent Colony",
    "lat": "11.655151",
    "lon": "75.557089"
  },
  {
    "name": "4 th - Mile",
    "lat": "11.783268",
    "lon": "75.52141"
  },
  {
    "name": "4-ാം മൈൽ",
    "lat": "9.6598288",
    "lon": "76.9942764"
  },
  {
    "name": "40 Acre",
    "lat": "9.446953",
    "lon": "76.8896829"
  },
  {
    "name": "40 ഏക്കർ",
    "lat": "9.446953",
    "lon": "76.8896829"
  },
  {
    "name": "40-ാം മൈൽ",
    "lat": "9.5566435",
    "lon": "76.9391908"
  },
  {
    "name": "400 K V Sub Station",
    "lat": "10.5722602",
    "lon": "76.276102"
  },
  {
    "name": "400 കെ വി സബ്സ്റ്റേഷൻ",
    "lat": "10.5722602",
    "lon": "76.276102"
  },
  {
    "name": "40th Mile",
    "lat": "9.5566435",
    "lon": "76.9391908"
  },
  {
    "name": "40th Mile Bus Stop",
    "lat": "9.5564321",
    "lon": "76.9395498"
  },
  {
    "name": "4Cent Colony",
    "lat": "11.6559276",
    "lon": "75.7003098"
  },
  {
    "name": "4th Mile",
    "lat": "9.6598288",
    "lon": "76.9942764"
  },
  {
    "name": "4th Mile Bus Stop",
    "lat": "9.6596953",
    "lon": "76.9943621"
  },
  {
    "name": "5 Star Junction",
    "lat": "8.7601995",
    "lon": "76.7200632"
  },
  {
    "name": "5 സ്റ്റാർ ജംഗ്‌ഷൻ",
    "lat": "8.7601995",
    "lon": "76.7200632"
  },
  {
    "name": "5-ാം മൈൽ",
    "lat": "9.6415443",
    "lon": "77.1657271"
  },
  {
    "name": "504 I. H. D. P Colony",
    "lat": "9.467448",
    "lon": "76.940718"
  },
  {
    "name": "504 ഐ.എച്ച്.ഡി.പി കോളനി",
    "lat": "9.467448",
    "lon": "76.940718"
  },
  {
    "name": "50th Mile",
    "lat": "10.143193",
    "lon": "76.964443"
  },
  {
    "name": "53 Mile Bus Stop",
    "lat": "10.9634565",
    "lon": "76.3434647"
  },
  {
    "name": "54",
    "lat": "11.8287055",
    "lon": "76.0421877"
  },
  {
    "name": "56-ാം മൈൽ",
    "lat": "9.5732765",
    "lon": "77.0593539"
  },
  {
    "name": "56th Mile",
    "lat": "9.5732765",
    "lon": "77.0593539"
  },
  {
    "name": "56th Mile Bus Stop",
    "lat": "9.5735134",
    "lon": "77.0594017"
  },
  {
    "name": "57-ാം മൈൽ",
    "lat": "9.5697973",
    "lon": "77.0592128"
  },
  {
    "name": "57th Mile",
    "lat": "9.5697973",
    "lon": "77.0592128"
  },
  {
    "name": "57th Mile Junction",
    "lat": "9.5720178",
    "lon": "77.0656426"
  },
  {
    "name": "5th Mile",
    "lat": "9.6415443",
    "lon": "77.1657271"
  },
  {
    "name": "6-ാം മൈൽ",
    "lat": "9.6478224",
    "lon": "77.1649081"
  },
  {
    "name": "62 മൈൽ",
    "lat": "9.5835479",
    "lon": "77.1156394"
  },
  {
    "name": "62-ാം മൈൽ",
    "lat": "9.5848031",
    "lon": "77.1196839"
  },
  {
    "name": "62nd Mile",
    "lat": "9.5848031",
    "lon": "77.1196839"
  },
  {
    "name": "62th Mile",
    "lat": "9.5835479",
    "lon": "77.1156394"
  },
  {
    "name": "62th mile",
    "lat": "9.584526",
    "lon": "77.1196179"
  },
  {
    "name": "64-ാം മൈൽ",
    "lat": "9.6033607",
    "lon": "77.1395552"
  },
  {
    "name": "64th Mile",
    "lat": "9.6033607",
    "lon": "77.1395552"
  },
  {
    "name": "66-ാം മൈൽ",
    "lat": "9.6080723",
    "lon": "77.1451095"
  },
  {
    "name": "66th Mile",
    "lat": "9.6080723",
    "lon": "77.1451095"
  },
  {
    "name": "6th Mile",
    "lat": "9.6477611",
    "lon": "77.1651986"
  },
  {
    "name": "6th Mile Bus Stop",
    "lat": "9.6689884",
    "lon": "77.0104379"
  },
  {
    "name": "7-ാം നമ്പർ",
    "lat": "9.7013839",
    "lon": "76.9537374"
  },
  {
    "name": "7-ാം മൈൽ",
    "lat": "9.6575714",
    "lon": "77.1593118"
  },
  {
    "name": "7/4",
    "lat": "11.3460086",
    "lon": "75.8090154"
  },
  {
    "name": "7/6",
    "lat": "11.3476603",
    "lon": "75.8091413"
  },
  {
    "name": "7Th Hair pin bend",
    "lat": "11.5052833",
    "lon": "76.0284556"
  },
  {
    "name": "7th Mile",
    "lat": "9.5827522",
    "lon": "76.6087502"
  },
  {
    "name": "7th Number",
    "lat": "9.7013839",
    "lon": "76.9537374"
  },
  {
    "name": "7th Number Bus Stop",
    "lat": "9.701238",
    "lon": "76.9538937"
  },
  {
    "name": "7th mile",
    "lat": "12.0225624",
    "lon": "75.3675237"
  },
  {
    "name": "8",
    "lat": "11.3521965",
    "lon": "75.8088987"
  },
  {
    "name": "8-ാം മൈൽ",
    "lat": "9.8094891",
    "lon": "77.0446768"
  },
  {
    "name": "8/2",
    "lat": "11.3566544",
    "lon": "75.8075772"
  },
  {
    "name": "8/2 (Balussery route)",
    "lat": "11.3565446",
    "lon": "75.8074941"
  },
  {
    "name": "8/2 Bus stop (Annassery/Patterpallam route)",
    "lat": "11.3567319",
    "lon": "75.8075177"
  },
  {
    "name": "800th Vayal",
    "lat": "9.439658",
    "lon": "76.846498"
  },
  {
    "name": "8Yh Hair pin bend",
    "lat": "11.5037132",
    "lon": "76.0272647"
  },
  {
    "name": "8th Mile",
    "lat": "9.8094891",
    "lon": "77.0446768"
  },
  {
    "name": "8th mile",
    "lat": "9.5781125",
    "lon": "76.6145116"
  },
  {
    "name": "8th mile bus stop",
    "lat": "12.5063842",
    "lon": "75.0905715"
  },
  {
    "name": "9/1",
    "lat": "11.369414",
    "lon": "75.8143084"
  },
  {
    "name": "9aam mail bus stop",
    "lat": "10.8406153",
    "lon": "76.560758"
  },
  {
    "name": "9th Mile",
    "lat": "9.5714512",
    "lon": "76.6242987"
  },
  {
    "name": "A C Nagar",
    "lat": "12.3290024",
    "lon": "75.1126816"
  },
  {
    "name": "A G Palace",
    "lat": "11.4713932",
    "lon": "75.721592"
  },
  {
    "name": "A K G Colony",
    "lat": "11.4100449",
    "lon": "75.8754243"
  },
  {
    "name": "A OneTech",
    "lat": "9.3665056",
    "lon": "76.5452775"
  },
  {
    "name": "A R Camp",
    "lat": "12.5274999",
    "lon": "75.0064684"
  },
  {
    "name": "A. C Bazar",
    "lat": "11.065083",
    "lon": "75.905269"
  },
  {
    "name": "A. C Nirapp",
    "lat": "10.955072",
    "lon": "76.032554"
  },
  {
    "name": "A. K. G Nagar",
    "lat": "9.794948",
    "lon": "76.853179"
  },
  {
    "name": "A. K. K. Nagar",
    "lat": "10.907069",
    "lon": "76.01999"
  },
  {
    "name": "A. R Nagar Bazar",
    "lat": "11.066167",
    "lon": "75.939009"
  },
  {
    "name": "A.K.G. Junction",
    "lat": "9.7864799",
    "lon": "76.3039664"
  },
  {
    "name": "AAnayamkund Colony",
    "lat": "10.7764035",
    "lon": "76.5674683"
  },
  {
    "name": "AAramthodi Naalu Cent Colony",
    "lat": "10.6227211",
    "lon": "76.4775919"
  },
  {
    "name": "AB Road Kottopadam",
    "lat": "10.9950343",
    "lon": "76.3999869"
  },
  {
    "name": "ABC BUS STOP",
    "lat": "11.7896803",
    "lon": "75.5305143"
  },
  {
    "name": "ABUP School",
    "lat": "10.7331815",
    "lon": "76.6352468"
  },
  {
    "name": "AC Colony",
    "lat": "10.8906261",
    "lon": "76.3193371"
  },
  {
    "name": "AC Nirapp",
    "lat": "10.9507593",
    "lon": "76.0340176"
  },
  {
    "name": "AEO Office",
    "lat": "10.0874239",
    "lon": "76.2085846"
  },
  {
    "name": "AKG",
    "lat": "9.9437032",
    "lon": "76.2970528"
  },
  {
    "name": "AKG Bus Stop",
    "lat": "11.884797",
    "lon": "75.3728468"
  },
  {
    "name": "AKG Padi",
    "lat": "9.6318587",
    "lon": "77.1631605"
  },
  {
    "name": "AKG bus stop",
    "lat": "11.6333608",
    "lon": "76.2190701"
  },
  {
    "name": "AL thara bus stop",
    "lat": "10.4960682",
    "lon": "76.2265733"
  },
  {
    "name": "ALAPPATTUPADY BUS STOP",
    "lat": "9.5164872",
    "lon": "76.582869"
  },
  {
    "name": "ALP Manampatta Bus Stop",
    "lat": "10.9016056",
    "lon": "76.4279577"
  },
  {
    "name": "AMAYANNOOR BUS STOP",
    "lat": "9.6225494",
    "lon": "76.6042963"
  },
  {
    "name": "AMLP School, Valliyoth",
    "lat": "11.4313891",
    "lon": "75.8731417"
  },
  {
    "name": "ANC Junction Bus Stop",
    "lat": "9.3716679",
    "lon": "76.5164349"
  },
  {
    "name": "ANCHAL MUKKADA JN. BUS STOP",
    "lat": "8.9272901",
    "lon": "76.913948"
  },
  {
    "name": "ANCHURULI SETTLEMENT",
    "lat": "9.7808653",
    "lon": "77.0604473"
  },
  {
    "name": "ANNADIVAYAL BUS STOP TO KUMILY",
    "lat": "9.5887676",
    "lon": "76.6004738"
  },
  {
    "name": "AP Varkey Hospital",
    "lat": "9.884873",
    "lon": "76.4487559"
  },
  {
    "name": "APJ Abdul Kalam Waiting Shed",
    "lat": "11.8534216",
    "lon": "76.1773378"
  },
  {
    "name": "ARIPRODE",
    "lat": "12.461457",
    "lon": "75.3322939"
  },
  {
    "name": "ATH",
    "lat": "10.066506",
    "lon": "76.2129234"
  },
  {
    "name": "AVHSS",
    "lat": "10.782951",
    "lon": "75.940775"
  },
  {
    "name": "AVT",
    "lat": "9.579169",
    "lon": "77.0399603"
  },
  {
    "name": "AYYIKARAPADI",
    "lat": "11.1742254",
    "lon": "75.8968238"
  },
  {
    "name": "Aadiyarpuram",
    "lat": "9.791206",
    "lon": "77.167526"
  },
  {
    "name": "Aadukavala Bus Stop",
    "lat": "10.1879161",
    "lon": "76.2086977"
  },
  {
    "name": "Aakkooparamb",
    "lat": "11.5501883",
    "lon": "75.7283302"
  },
  {
    "name": "Aalady",
    "lat": "9.6823337",
    "lon": "77.0296295"
  },
  {
    "name": "Aalady Bus Stop",
    "lat": "9.6822183",
    "lon": "77.0296902"
  },
  {
    "name": "Aalady Kurishadi Bus Stop",
    "lat": "9.6784647",
    "lon": "77.0282758"
  },
  {
    "name": "Aalai",
    "lat": "12.3169167",
    "lon": "75.1184786"
  },
  {
    "name": "Aalakkad",
    "lat": "12.133113",
    "lon": "75.364896"
  },
  {
    "name": "Aalakkal",
    "lat": "11.900842",
    "lon": "75.50633"
  },
  {
    "name": "Aalakkuzhi",
    "lat": "10.9474604",
    "lon": "76.2948286"
  },
  {
    "name": "Aalancheri Colony",
    "lat": "11.3366173",
    "lon": "75.9975515"
  },
  {
    "name": "Aalappattu Junction Bus Stop",
    "lat": "9.4196763",
    "lon": "76.9579876"
  },
  {
    "name": "Aalayamkavala",
    "lat": "9.457983",
    "lon": "76.799916"
  },
  {
    "name": "Aalin Chodu, Kuttamboor",
    "lat": "11.4043933",
    "lon": "75.8557386"
  },
  {
    "name": "Aalin chuvad",
    "lat": "11.4159621",
    "lon": "75.81678"
  },
  {
    "name": "Aalinchuvadu",
    "lat": "10.7236594",
    "lon": "76.3005562"
  },
  {
    "name": "Aalinkund Colony",
    "lat": "10.8291445",
    "lon": "76.5662812"
  },
  {
    "name": "Aalipuram Colony",
    "lat": "10.9738019",
    "lon": "76.4799342"
  },
  {
    "name": "Aalissery",
    "lat": "11.6731302",
    "lon": "75.619253"
  },
  {
    "name": "Aalthara Junction",
    "lat": "9.3195181",
    "lon": "76.6177597"
  },
  {
    "name": "Aaltharamoodu",
    "lat": "8.8869627",
    "lon": "76.5753076"
  },
  {
    "name": "Aalummaav",
    "lat": "10.1617599",
    "lon": "76.2143399"
  },
  {
    "name": "Aamayar",
    "lat": "9.7292485",
    "lon": "77.1590985"
  },
  {
    "name": "Aamayar Bridge",
    "lat": "9.732787",
    "lon": "77.1535355"
  },
  {
    "name": "Aamayur",
    "lat": "10.8285965",
    "lon": "76.1856343"
  },
  {
    "name": "Aambakuzhi",
    "lat": "9.5929666",
    "lon": "76.4839858"
  },
  {
    "name": "Aanachira SC Colony",
    "lat": "10.7911851",
    "lon": "76.6521894"
  },
  {
    "name": "Aanakkalluparamb Colony",
    "lat": "10.8379056",
    "lon": "76.5162261"
  },
  {
    "name": "Aanakuzhi",
    "lat": "9.393284",
    "lon": "76.9897107"
  },
  {
    "name": "Aanakuzhiyal",
    "lat": "10.9510196",
    "lon": "76.0538876"
  },
  {
    "name": "Aanakuzhy",
    "lat": "9.48808",
    "lon": "76.544511"
  },
  {
    "name": "Aanappara",
    "lat": "11.3049337",
    "lon": "75.8896117"
  },
  {
    "name": "Aanavaramb Colony",
    "lat": "10.9220426",
    "lon": "76.506844"
  },
  {
    "name": "Aanavilasam",
    "lat": "9.6631373",
    "lon": "77.0965499"
  },
  {
    "name": "Aanavizhungi",
    "lat": "10.3955131",
    "lon": "76.1210703"
  },
  {
    "name": "Aanenimetta",
    "lat": "11.900987",
    "lon": "75.479411"
  },
  {
    "name": "Aanichuvad Junction",
    "lat": "9.8257515",
    "lon": "76.6299739"
  },
  {
    "name": "Aanikkampoyil",
    "lat": "11.785243",
    "lon": "75.542114"
  },
  {
    "name": "Aannikaad Junction",
    "lat": "10.1208007",
    "lon": "76.3953558"
  },
  {
    "name": "Aanoor Lakshamveed colony",
    "lat": "12.18755",
    "lon": "75.1772664"
  },
  {
    "name": "Aaraam Mile (6th mile)",
    "lat": "11.7542227",
    "lon": "76.0270696"
  },
  {
    "name": "Aarakkan",
    "lat": "10.9797004",
    "lon": "76.3422037"
  },
  {
    "name": "Aaram mile",
    "lat": "9.7477993",
    "lon": "76.5109983"
  },
  {
    "name": "Aarammile",
    "lat": "11.802808",
    "lon": "75.539777"
  },
  {
    "name": "Aarankunn -ST COLONY",
    "lat": "10.9614146",
    "lon": "76.2924068"
  },
  {
    "name": "Aarattukayam",
    "lat": "9.4213587",
    "lon": "76.9519626"
  },
  {
    "name": "Aarow Global Business Solutions",
    "lat": "10.010064",
    "lon": "76.311152"
  },
  {
    "name": "Aaru Muri",
    "lat": "9.9581079",
    "lon": "76.2690686"
  },
  {
    "name": "Aarumurikkada",
    "lat": "8.970194",
    "lon": "76.6934685"
  },
  {
    "name": "Aaryampadam",
    "lat": "10.4699927",
    "lon": "76.1698517"
  },
  {
    "name": "Aaryattu Kavala",
    "lat": "9.4026215",
    "lon": "77.0006366"
  },
  {
    "name": "Aasarikavala",
    "lat": "9.8185322",
    "lon": "77.1196984"
  },
  {
    "name": "Aasarikavala Bus Stop",
    "lat": "9.8182484",
    "lon": "77.1196137"
  },
  {
    "name": "Aasarithara Colony",
    "lat": "10.6521958",
    "lon": "76.4511407"
  },
  {
    "name": "Aashari moola",
    "lat": "12.0991504",
    "lon": "75.3517331"
  },
  {
    "name": "Aasharimukku,amarap.o",
    "lat": "9.4469652",
    "lon": "76.5932022"
  },
  {
    "name": "Aasharissery Colony",
    "lat": "9.7331689",
    "lon": "76.3997382"
  },
  {
    "name": "Aashramum Bus Stop;Ashramam bustop",
    "lat": "10.5528251",
    "lon": "76.1612683"
  },
  {
    "name": "Aasrama Stop",
    "lat": "9.1815549",
    "lon": "76.6509612"
  },
  {
    "name": "Aasramam",
    "lat": "9.505894",
    "lon": "76.53015"
  },
  {
    "name": "Aasupathri",
    "lat": "10.2774029",
    "lon": "76.253947"
  },
  {
    "name": "Aasupathripadi Bus Stop, Kodikulam",
    "lat": "9.9518468",
    "lon": "76.7672617"
  },
  {
    "name": "Aathadi",
    "lat": "11.2228856",
    "lon": "76.0822694"
  },
  {
    "name": "Aattadappa ward",
    "lat": "11.866791",
    "lon": "75.427324"
  },
  {
    "name": "Aatteerippara",
    "lat": "10.9907214",
    "lon": "76.3474623"
  },
  {
    "name": "Aattupuram",
    "lat": "10.1775036",
    "lon": "76.3033311"
  },
  {
    "name": "Aavalli Colony",
    "lat": "9.7167459",
    "lon": "76.3928382"
  },
  {
    "name": "Aayampara",
    "lat": "12.4255206",
    "lon": "75.0892035"
  },
  {
    "name": "Aayiramkulam",
    "lat": "10.6032826",
    "lon": "76.0699099"
  },
  {
    "name": "Aayurvedha",
    "lat": "9.9509948",
    "lon": "76.3632189"
  },
  {
    "name": "Aazhchath Colony",
    "lat": "10.8548492",
    "lon": "76.4985967"
  },
  {
    "name": "Abalaparambil Colony",
    "lat": "11.3241519",
    "lon": "75.9175108"
  },
  {
    "name": "Abdurahiman Nagar",
    "lat": "11.1041965",
    "lon": "75.9559198"
  },
  {
    "name": "Abrammal Chudalakandi Colony",
    "lat": "11.3015998",
    "lon": "75.8995776"
  },
  {
    "name": "Abrammal SC Colony",
    "lat": "11.3087965",
    "lon": "75.8662649"
  },
  {
    "name": "Achakada",
    "lat": "9.7416574",
    "lon": "77.2104559"
  },
  {
    "name": "Achamkandam",
    "lat": "10.313095",
    "lon": "76.1391558"
  },
  {
    "name": "Achammandi",
    "lat": "11.6012167",
    "lon": "75.6014031"
  },
  {
    "name": "Achamthuruthi",
    "lat": "12.22715",
    "lon": "75.1246515"
  },
  {
    "name": "Achan Kavala",
    "lat": "9.9131971",
    "lon": "76.6947511"
  },
  {
    "name": "Achanambalam",
    "lat": "11.0782597",
    "lon": "75.9763904"
  },
  {
    "name": "Achankanam",
    "lat": "9.697133",
    "lon": "77.181525"
  },
  {
    "name": "Achankovil",
    "lat": "9.0922383",
    "lon": "77.1216764"
  },
  {
    "name": "Achankunnu",
    "lat": "10.522942",
    "lon": "76.2970321"
  },
  {
    "name": "Achappan Kavala",
    "lat": "10.030862",
    "lon": "76.408022"
  },
  {
    "name": "Achchamthuruththu",
    "lat": "12.2164791",
    "lon": "75.1271825"
  },
  {
    "name": "Achickal",
    "lat": "9.819462",
    "lon": "76.573167"
  },
  {
    "name": "Achikanam",
    "lat": "12.330342",
    "lon": "75.130518"
  },
  {
    "name": "Achikanam Colony",
    "lat": "12.3386229",
    "lon": "75.134003"
  },
  {
    "name": "Achinakam",
    "lat": "9.6555739",
    "lon": "76.425539"
  },
  {
    "name": "Achinakom",
    "lat": "9.652531",
    "lon": "76.42649"
  },
  {
    "name": "Achoor 5th No Colony",
    "lat": "11.6006273",
    "lon": "76.0109665"
  },
  {
    "name": "Achooranam",
    "lat": "11.6077331",
    "lon": "76.0081286"
  },
  {
    "name": "Adachampurath",
    "lat": "11.4642918",
    "lon": "75.7321197"
  },
  {
    "name": "Adachavila",
    "lat": "8.7628312",
    "lon": "76.7202787"
  },
  {
    "name": "Adakam",
    "lat": "12.4468385",
    "lon": "75.2536439"
  },
  {
    "name": "Adakaputhur Bus Stop",
    "lat": "10.8878264",
    "lon": "76.3588564"
  },
  {
    "name": "Adakkakundu",
    "lat": "11.185567",
    "lon": "76.36691"
  },
  {
    "name": "Adakkappura",
    "lat": "11.03556",
    "lon": "75.953546"
  },
  {
    "name": "Adakkaputhur",
    "lat": "10.8809679",
    "lon": "76.3588599"
  },
  {
    "name": "Adakkathode",
    "lat": "11.916799",
    "lon": "75.840688"
  },
  {
    "name": "Adakkathodu",
    "lat": "11.9243566",
    "lon": "75.8374562"
  },
  {
    "name": "Adakkode",
    "lat": "10.671662",
    "lon": "76.3840469"
  },
  {
    "name": "Adamatam",
    "lat": "9.5117073",
    "lon": "76.7450722"
  },
  {
    "name": "Adambil",
    "lat": "12.3285508",
    "lon": "75.1190701"
  },
  {
    "name": "Adampara",
    "lat": "12.134148",
    "lon": "75.613092"
  },
  {
    "name": "Adangalam",
    "lat": "10.6301116",
    "lon": "76.2590593"
  },
  {
    "name": "Adarsha Junction",
    "lat": "10.0038264",
    "lon": "76.3470014"
  },
  {
    "name": "Adat",
    "lat": "10.5542684",
    "lon": "76.1466346"
  },
  {
    "name": "Adat , Bus stop",
    "lat": "10.5527513",
    "lon": "76.152358"
  },
  {
    "name": "Adayamon Bus Stop",
    "lat": "8.7874648",
    "lon": "76.9049831"
  },
  {
    "name": "Adhikaripadi",
    "lat": "10.7402997",
    "lon": "75.9729829"
  },
  {
    "name": "Adhikarippadi",
    "lat": "10.739415",
    "lon": "75.972873"
  },
  {
    "name": "Adhur",
    "lat": "12.5547432",
    "lon": "75.178975"
  },
  {
    "name": "Adichanalloor",
    "lat": "8.8805138",
    "lon": "76.7118791"
  },
  {
    "name": "Adichanalloor Grama Panchayat",
    "lat": "8.882561111",
    "lon": "76.713130555"
  },
  {
    "name": "Adichanalloor Junction",
    "lat": "8.8802911",
    "lon": "76.7112462"
  },
  {
    "name": "Adichanallur",
    "lat": "8.8618736",
    "lon": "76.7052829"
  },
  {
    "name": "Adichery",
    "lat": "12.016978",
    "lon": "75.477523"
  },
  {
    "name": "Adichily",
    "lat": "10.286791",
    "lon": "76.4091301"
  },
  {
    "name": "Adichipuzha",
    "lat": "9.383381",
    "lon": "76.825"
  },
  {
    "name": "Adichira",
    "lat": "9.6323625",
    "lon": "76.5431991"
  },
  {
    "name": "Adichumakkal Palam",
    "lat": "9.5432717",
    "lon": "76.7629726"
  },
  {
    "name": "Adikadalayi Last Stop",
    "lat": "11.8459045",
    "lon": "75.3972735"
  },
  {
    "name": "Adikadalayi Temple Bus Stop",
    "lat": "11.8454582",
    "lon": "75.4032812"
  },
  {
    "name": "Adikadalayi ward",
    "lat": "11.847845",
    "lon": "75.400683"
  },
  {
    "name": "Adikandath Temple",
    "lat": "10.0019635",
    "lon": "76.2458863"
  },
  {
    "name": "Adikkandam",
    "lat": "10.000482",
    "lon": "76.247379"
  },
  {
    "name": "Adikolly",
    "lat": "11.7814316",
    "lon": "76.1888845"
  },
  {
    "name": "Adimalathura",
    "lat": "8.356017",
    "lon": "77.0197912"
  },
  {
    "name": "Adimali",
    "lat": "10.0144274",
    "lon": "76.9554575"
  },
  {
    "name": "Adimali North",
    "lat": "10.024047",
    "lon": "76.945969"
  },
  {
    "name": "Adithiruthi",
    "lat": "10.5401862",
    "lon": "76.0337592"
  },
  {
    "name": "Adithya Garden & Nursery",
    "lat": "11.375476",
    "lon": "76.0182089"
  },
  {
    "name": "Adithya Nagar",
    "lat": "10.7638572",
    "lon": "76.6424109"
  },
  {
    "name": "Adithyapuram",
    "lat": "9.744196",
    "lon": "76.485739"
  },
  {
    "name": "Adivad",
    "lat": "10.0240216",
    "lon": "76.657133"
  },
  {
    "name": "Adivaram",
    "lat": "10.0722361",
    "lon": "76.3638968"
  },
  {
    "name": "Adivaram Bus Stop",
    "lat": "9.6154908",
    "lon": "76.7750175"
  },
  {
    "name": "Adivayal",
    "lat": "11.796043",
    "lon": "75.464374"
  },
  {
    "name": "Adiwasi Colony Kammadi",
    "lat": "12.4914225",
    "lon": "75.4174151"
  },
  {
    "name": "Adiyani",
    "lat": "9.2946143",
    "lon": "76.7812115"
  },
  {
    "name": "Adiyarappara",
    "lat": "11.835322",
    "lon": "75.575688"
  },
  {
    "name": "Adiyoor East",
    "lat": "11.6744364",
    "lon": "75.5999794"
  },
  {
    "name": "Adiyoor West",
    "lat": "11.6728675",
    "lon": "75.5931106"
  },
  {
    "name": "Adka",
    "lat": "12.6444733",
    "lon": "74.9294025"
  },
  {
    "name": "Adkastala",
    "lat": "12.6721838",
    "lon": "75.1199119"
  },
  {
    "name": "Adkasthala",
    "lat": "12.6720881",
    "lon": "75.1062888"
  },
  {
    "name": "Adkathbail",
    "lat": "12.5146621",
    "lon": "74.9786384"
  },
  {
    "name": "Adooparambu",
    "lat": "9.9723969",
    "lon": "76.6052769"
  },
  {
    "name": "Adoor",
    "lat": "9.1529656",
    "lon": "76.7355742"
  },
  {
    "name": "Adoor Bus Stop",
    "lat": "9.1531628",
    "lon": "76.7352679"
  },
  {
    "name": "Adoor Central",
    "lat": "11.836304",
    "lon": "75.443526"
  },
  {
    "name": "Adoor Private Bus Stop",
    "lat": "9.1533562",
    "lon": "76.7339793"
  },
  {
    "name": "Adoor, Pathanamthitta district",
    "lat": "9.16667",
    "lon": "76.73333"
  },
  {
    "name": "Adooraparamb",
    "lat": "11.231848",
    "lon": "75.982497"
  },
  {
    "name": "Adoormala",
    "lat": "9.81228",
    "lon": "76.78736"
  },
  {
    "name": "Adoorpalam Busstop",
    "lat": "11.8396954",
    "lon": "75.4421087"
  },
  {
    "name": "Adot",
    "lat": "12.347438",
    "lon": "75.0905067"
  },
  {
    "name": "Adottukayam",
    "lat": "12.418164",
    "lon": "75.295464"
  },
  {
    "name": "Adrikad",
    "lat": "11.026294",
    "lon": "75.926823"
  },
  {
    "name": "Adukallamulla",
    "lat": "8.9979539",
    "lon": "76.9239781"
  },
  {
    "name": "Adukam",
    "lat": "12.5365361",
    "lon": "75.0535941"
  },
  {
    "name": "Adukathbail",
    "lat": "12.5162373",
    "lon": "74.9756536"
  },
  {
    "name": "Adukathparambu",
    "lat": "12.2945761",
    "lon": "75.1355227"
  },
  {
    "name": "Adukkalakandam",
    "lat": "12.368386",
    "lon": "75.325289"
  },
  {
    "name": "Adukkath",
    "lat": "11.6493618",
    "lon": "75.7698496"
  },
  {
    "name": "Adukkathummal Colony",
    "lat": "11.3553354",
    "lon": "75.8655566"
  },
  {
    "name": "Adukkathuparambu",
    "lat": "12.2908987",
    "lon": "75.1343593"
  },
  {
    "name": "Adukkom",
    "lat": "9.730453",
    "lon": "76.833288"
  },
  {
    "name": "Adumbuvila Colony",
    "lat": "9.1383664",
    "lon": "76.6164788"
  },
  {
    "name": "Adup Para Colony",
    "lat": "9.13904",
    "lon": "76.8096527"
  },
  {
    "name": "Aduthila",
    "lat": "12.0427842",
    "lon": "75.2653643"
  },
  {
    "name": "Aduvad",
    "lat": "11.2733348",
    "lon": "75.9467616"
  },
  {
    "name": "Aduvappuram North",
    "lat": "12.014619",
    "lon": "75.522562"
  },
  {
    "name": "Aduvappuram South",
    "lat": "12.007961",
    "lon": "75.52127"
  },
  {
    "name": "Aduvasseri",
    "lat": "10.1560675",
    "lon": "76.3196252"
  },
  {
    "name": "Adyanadka",
    "lat": "12.6966196",
    "lon": "75.1056711"
  },
  {
    "name": "Aerom",
    "lat": "8.9500024",
    "lon": "76.8918858"
  },
  {
    "name": "Agali",
    "lat": "11.1057095",
    "lon": "76.6547629"
  },
  {
    "name": "Agali Hills",
    "lat": "11.105814",
    "lon": "76.653553"
  },
  {
    "name": "Agalpady",
    "lat": "12.5672503",
    "lon": "75.1023888"
  },
  {
    "name": "Agastiakodu",
    "lat": "8.9460364",
    "lon": "76.9178548"
  },
  {
    "name": "Agastianmuzhi",
    "lat": "11.3286994",
    "lon": "75.9873872"
  },
  {
    "name": "Agraharam",
    "lat": "10.5393885",
    "lon": "76.2016951"
  },
  {
    "name": "Agricultural Research Station",
    "lat": "11.6166769",
    "lon": "76.2133789"
  },
  {
    "name": "Agricultural Research Station, Mannuthy",
    "lat": "10.535",
    "lon": "76.268"
  },
  {
    "name": "Agustianmuzhi",
    "lat": "11.3375109",
    "lon": "75.9876837"
  },
  {
    "name": "Aickadu",
    "lat": "9.1830581",
    "lon": "76.7552636"
  },
  {
    "name": "Aikkuzhi",
    "lat": "9.425454",
    "lon": "76.610761"
  },
  {
    "name": "Aimcombu",
    "lat": "9.7774872",
    "lon": "76.6945884"
  },
  {
    "name": "Aingoth",
    "lat": "12.2812128",
    "lon": "75.1088121"
  },
  {
    "name": "Ainthoor",
    "lat": "11.20275",
    "lon": "76.152115"
  },
  {
    "name": "Airapuram",
    "lat": "10.0604809",
    "lon": "76.5064919"
  },
  {
    "name": "Aircargo Shankumukham",
    "lat": "8.4776363",
    "lon": "76.9133466"
  },
  {
    "name": "Airport",
    "lat": "9.936565",
    "lon": "76.2766891"
  },
  {
    "name": "Airport Junction",
    "lat": "8.4754016",
    "lon": "76.9183328"
  },
  {
    "name": "Airport North Gate",
    "lat": "8.4896916",
    "lon": "76.9202188"
  },
  {
    "name": "Airport Pump",
    "lat": "10.1595872",
    "lon": "76.3864548"
  },
  {
    "name": "Aishwarya Nagar",
    "lat": "8.4964935",
    "lon": "76.9051658"
  },
  {
    "name": "Aishwarya Nagar Bus Stop",
    "lat": "10.6049004",
    "lon": "76.1714078"
  },
  {
    "name": "Aishwarya Nagar Colony",
    "lat": "11.8935476",
    "lon": "75.3764644"
  },
  {
    "name": "Aithalappadi Bus Stop",
    "lat": "9.4214133",
    "lon": "76.9698256"
  },
  {
    "name": "Aithanadka",
    "lat": "12.5963277",
    "lon": "75.1815007"
  },
  {
    "name": "Aivalappu",
    "lat": "12.1194771",
    "lon": "75.3974799"
  },
  {
    "name": "Aiyyankoickal Jn.",
    "lat": "8.9919716",
    "lon": "76.5747339"
  },
  {
    "name": "Ajantha",
    "lat": "9.9522166",
    "lon": "76.2477994"
  },
  {
    "name": "Ajanur Kadappuram",
    "lat": "12.3313467",
    "lon": "75.070173"
  },
  {
    "name": "Ajapamadam Bus Stop",
    "lat": "10.7810401",
    "lon": "76.3348649"
  },
  {
    "name": "Ajeduka",
    "lat": "12.6010564",
    "lon": "75.1960667"
  },
  {
    "name": "Akaayi Colony Ward 8",
    "lat": "10.4415784",
    "lon": "76.123779"
  },
  {
    "name": "Akalad South",
    "lat": "10.6399251",
    "lon": "75.9813682"
  },
  {
    "name": "Akamala",
    "lat": "10.6838534",
    "lon": "76.2669788"
  },
  {
    "name": "Akambadam",
    "lat": "11.3107996",
    "lon": "76.2087274"
  },
  {
    "name": "Akampadam",
    "lat": "11.308949",
    "lon": "76.175206"
  },
  {
    "name": "Akaparambu",
    "lat": "10.1590881",
    "lon": "76.3807952"
  },
  {
    "name": "Akashavani",
    "lat": "10.105372",
    "lon": "76.4752775"
  },
  {
    "name": "Akashavani Junction",
    "lat": "10.012932",
    "lon": "76.3416197"
  },
  {
    "name": "Akathiyoor",
    "lat": "10.4",
    "lon": "76.5"
  },
  {
    "name": "Akathiyoor Centre",
    "lat": "10.6807298",
    "lon": "76.0969412"
  },
  {
    "name": "Akathiyoor Lakshamveed Colony",
    "lat": "10.679255",
    "lon": "76.094066"
  },
  {
    "name": "Akathiyoor North",
    "lat": "10.6845305",
    "lon": "76.090874"
  },
  {
    "name": "Akayilpadi",
    "lat": "10.9798456",
    "lon": "76.1484655"
  },
  {
    "name": "Akkaarambu",
    "lat": "10.7244379",
    "lon": "76.4362997"
  },
  {
    "name": "Akkalam",
    "lat": "9.530781",
    "lon": "76.528798"
  },
  {
    "name": "Akkampatta Colony",
    "lat": "10.8986771",
    "lon": "76.3191021"
  },
  {
    "name": "Akkandypeedika",
    "lat": "11.9802358",
    "lon": "75.4970474"
  },
  {
    "name": "Akkapparamba",
    "lat": "10.98111",
    "lon": "76.081071"
  },
  {
    "name": "Akkarakkulam",
    "lat": "11.126181",
    "lon": "76.295806"
  },
  {
    "name": "Akkarapadom",
    "lat": "9.786387",
    "lon": "76.37822"
  },
  {
    "name": "Akkaraparamb",
    "lat": "11.2491695",
    "lon": "76.0271354"
  },
  {
    "name": "Akkarappuram",
    "lat": "11.100711",
    "lon": "76.300455"
  },
  {
    "name": "Akkikavu East",
    "lat": "10.6881994",
    "lon": "76.0910061"
  },
  {
    "name": "Akkikavu West",
    "lat": "10.6886422",
    "lon": "76.0842654"
  },
  {
    "name": "Akkikkavu",
    "lat": "10.6955608",
    "lon": "76.091718"
  },
  {
    "name": "Akkikkavu Lakshamveed Colony",
    "lat": "10.6893987",
    "lon": "76.0919275"
  },
  {
    "name": "Akkode",
    "lat": "11.233667",
    "lon": "75.919307"
  },
  {
    "name": "Akkodikavu",
    "lat": "10.600493",
    "lon": "76.2033659"
  },
  {
    "name": "Akkool",
    "lat": "11.5175176",
    "lon": "75.6678682"
  },
  {
    "name": "Akkooparamb",
    "lat": "11.5625174",
    "lon": "75.7319703"
  },
  {
    "name": "Akkulam",
    "lat": "8.521056",
    "lon": "76.9067859"
  },
  {
    "name": "Akloth Nada",
    "lat": "11.6093697",
    "lon": "75.6035006"
  },
  {
    "name": "AksharaNagar",
    "lat": "10.0692832",
    "lon": "76.4907207"
  },
  {
    "name": "Akshay E Centre Palappuram",
    "lat": "10.7699904",
    "lon": "76.4189233"
  },
  {
    "name": "Akshaya",
    "lat": "8.5079998",
    "lon": "77.1494135"
  },
  {
    "name": "Akshaya centre kallanode",
    "lat": "11.5339091",
    "lon": "75.8762731"
  },
  {
    "name": "Akul Vayal Colony",
    "lat": "11.5177211",
    "lon": "75.6704551"
  },
  {
    "name": "Al Ameen",
    "lat": "10.0286588",
    "lon": "76.305546"
  },
  {
    "name": "Ala",
    "lat": "9.2945936",
    "lon": "76.6023272"
  },
  {
    "name": "Ala Gothuruth",
    "lat": "10.2523674",
    "lon": "76.1958216"
  },
  {
    "name": "Ala Grama Panchayat",
    "lat": "9.282044",
    "lon": "76.6117955"
  },
  {
    "name": "Alachery",
    "lat": "11.868793",
    "lon": "75.676972"
  },
  {
    "name": "Alackal Bus stop",
    "lat": "9.6416128",
    "lon": "76.6889679"
  },
  {
    "name": "Alackappally",
    "lat": "9.7415713",
    "lon": "76.5989899"
  },
  {
    "name": "Alady",
    "lat": "9.678018",
    "lon": "77.028449"
  },
  {
    "name": "AlagappaNagar",
    "lat": "10.43333333",
    "lon": "76.26666667"
  },
  {
    "name": "Alagappanagar",
    "lat": "10.4291347",
    "lon": "76.2693877"
  },
  {
    "name": "Alakapuri Convention Center",
    "lat": "8.5076295",
    "lon": "76.9704502"
  },
  {
    "name": "Alakkad",
    "lat": "12.1356327",
    "lon": "75.3636526"
  },
  {
    "name": "Alakkada Temple",
    "lat": "10.1134836",
    "lon": "76.2481485"
  },
  {
    "name": "Alakkaparamba",
    "lat": "11.1778171",
    "lon": "75.9483462"
  },
  {
    "name": "Alakkaparambu",
    "lat": "9.7632286",
    "lon": "76.3178721"
  },
  {
    "name": "Alakkodu",
    "lat": "9.8825045",
    "lon": "76.7661968"
  },
  {
    "name": "Alakkuzhi Junction",
    "lat": "9.02178",
    "lon": "76.8070464"
  },
  {
    "name": "Alakode",
    "lat": "12.191555",
    "lon": "75.4671357"
  },
  {
    "name": "Alakode Bus Stop",
    "lat": "12.1894026",
    "lon": "75.4669701"
  },
  {
    "name": "Alakode Church",
    "lat": "12.1855078",
    "lon": "75.4662477"
  },
  {
    "name": "Alakode North",
    "lat": "9.890332",
    "lon": "76.769281"
  },
  {
    "name": "Alakode School Bus Stop",
    "lat": "12.1923534",
    "lon": "75.4668504"
  },
  {
    "name": "Alakode South",
    "lat": "9.877318",
    "lon": "76.763199"
  },
  {
    "name": "Alakodu",
    "lat": "9.282984",
    "lon": "76.6983029"
  },
  {
    "name": "Alakuthara Colony",
    "lat": "9.8806435",
    "lon": "76.3050501"
  },
  {
    "name": "Alamattom",
    "lat": "9.758391",
    "lon": "76.732267"
  },
  {
    "name": "Alambadi",
    "lat": "12.3182578",
    "lon": "75.1506954"
  },
  {
    "name": "Alamballam",
    "lat": "10.7750839",
    "lon": "76.7323177"
  },
  {
    "name": "Alamcode",
    "lat": "8.7196091",
    "lon": "76.812751"
  },
  {
    "name": "Alamipalli",
    "lat": "12.306164",
    "lon": "75.0978577"
  },
  {
    "name": "Alamkode",
    "lat": "10.752894",
    "lon": "76.040599"
  },
  {
    "name": "Alampady",
    "lat": "12.5272869",
    "lon": "75.0355536"
  },
  {
    "name": "Alampally",
    "lat": "9.5634242",
    "lon": "76.6453096"
  },
  {
    "name": "Alamthode Colony",
    "lat": "10.7591032",
    "lon": "76.5968501"
  },
  {
    "name": "Alanad",
    "lat": "9.740177",
    "lon": "76.715751"
  },
  {
    "name": "Alanallur",
    "lat": "11.0111702",
    "lon": "76.3458395"
  },
  {
    "name": "Alanallur - Mannarkad Road",
    "lat": "11.0009113",
    "lon": "76.3753602"
  },
  {
    "name": "Alancherymugal",
    "lat": "10.0574354",
    "lon": "76.3909842"
  },
  {
    "name": "Alangad",
    "lat": "10.122416",
    "lon": "76.3014912"
  },
  {
    "name": "Alangad Colony",
    "lat": "10.8343322",
    "lon": "76.5530739"
  },
  {
    "name": "Alangad Grama Panchayat",
    "lat": "10.71244",
    "lon": "76.1732038"
  },
  {
    "name": "Alangad Junction",
    "lat": "10.1293779",
    "lon": "76.2995476"
  },
  {
    "name": "Alangad Kavu",
    "lat": "10.1216958",
    "lon": "76.2982129"
  },
  {
    "name": "Alangattuthara SC Colony",
    "lat": "10.7542738",
    "lon": "76.6649579"
  },
  {
    "name": "Alani colony",
    "lat": "9.682852",
    "lon": "77.1926474"
  },
  {
    "name": "Alanthadka",
    "lat": "12.5565427",
    "lon": "75.1706211"
  },
  {
    "name": "Alanthuruth",
    "lat": "10.1638722",
    "lon": "76.20681"
  },
  {
    "name": "Alapad",
    "lat": "10.440425",
    "lon": "76.1676013"
  },
  {
    "name": "Alapara",
    "lat": "9.458718",
    "lon": "76.774993"
  },
  {
    "name": "Alapoyil",
    "lat": "11.361811",
    "lon": "76.346445"
  },
  {
    "name": "Alappad",
    "lat": "9.0626871",
    "lon": "76.4988405"
  },
  {
    "name": "Alappuzha",
    "lat": "9.4980001",
    "lon": "76.333482"
  },
  {
    "name": "Alappuzha Private Bus Stand",
    "lat": "9.5001426",
    "lon": "76.3359893"
  },
  {
    "name": "Alapra",
    "lat": "12.004949",
    "lon": "75.662019"
  },
  {
    "name": "Alapuram",
    "lat": "9.7877484",
    "lon": "76.6049704"
  },
  {
    "name": "Alapuzha",
    "lat": "9.564563",
    "lon": "76.544218"
  },
  {
    "name": "Alariyod Colony",
    "lat": "10.9237649",
    "lon": "76.3607432"
  },
  {
    "name": "Alary",
    "lat": "9.775103",
    "lon": "76.498597"
  },
  {
    "name": "Alathattu",
    "lat": "12.1234005",
    "lon": "75.3865963"
  },
  {
    "name": "Alathattu Colony",
    "lat": "12.0862943",
    "lon": "75.3709153"
  },
  {
    "name": "Alathiyur East",
    "lat": "10.865709",
    "lon": "75.945118"
  },
  {
    "name": "Alathiyur West",
    "lat": "10.866646",
    "lon": "75.932608"
  },
  {
    "name": "Alathur",
    "lat": "9.701797",
    "lon": "76.4191105"
  },
  {
    "name": "Alathur North",
    "lat": "10.382224",
    "lon": "76.2841471"
  },
  {
    "name": "Alathur South",
    "lat": "10.3761084",
    "lon": "76.2815227"
  },
  {
    "name": "Alathur bank road junction",
    "lat": "10.646142",
    "lon": "76.5481254"
  },
  {
    "name": "Alathur court junction",
    "lat": "10.647394",
    "lon": "76.538419"
  },
  {
    "name": "Alathur malamala junction",
    "lat": "10.6482331",
    "lon": "76.5310798"
  },
  {
    "name": "Alathur town bus stop",
    "lat": "10.6481639",
    "lon": "76.5381104"
  },
  {
    "name": "Alattil",
    "lat": "11.808008",
    "lon": "75.868248"
  },
  {
    "name": "Alattuchira",
    "lat": "10.1823152",
    "lon": "76.5388512"
  },
  {
    "name": "Alavikunn Town",
    "lat": "12.0803626",
    "lon": "75.6472661"
  },
  {
    "name": "Alavil North",
    "lat": "11.904615",
    "lon": "75.345458"
  },
  {
    "name": "Alavil South",
    "lat": "11.89868",
    "lon": "75.349614"
  },
  {
    "name": "Alayad",
    "lat": "11.3783869",
    "lon": "75.8261143"
  },
  {
    "name": "Alayamon",
    "lat": "8.9004707",
    "lon": "76.9550755"
  },
  {
    "name": "Alayathazha",
    "lat": "8.5755849",
    "lon": "76.9905492"
  },
  {
    "name": "Alazhar College Bus Stop",
    "lat": "9.9187025",
    "lon": "76.7197032"
  },
  {
    "name": "Alengad",
    "lat": "10.4654941",
    "lon": "76.3289952"
  },
  {
    "name": "Alichery",
    "lat": "12.496267",
    "lon": "75.0137365"
  },
  {
    "name": "Alichodu",
    "lat": "10.0700968",
    "lon": "76.5709168"
  },
  {
    "name": "Alin chuvadu",
    "lat": "11.2739757",
    "lon": "75.9512181"
  },
  {
    "name": "Alinchodu",
    "lat": "10.7396759",
    "lon": "76.3906572"
  },
  {
    "name": "Alinchuvad",
    "lat": "11.1668912",
    "lon": "75.9908523"
  },
  {
    "name": "Alinchuvadu",
    "lat": "10.074117",
    "lon": "76.4499642"
  },
  {
    "name": "Alinchuvadu Junction",
    "lat": "10.0057308",
    "lon": "76.3154487"
  },
  {
    "name": "Alingal",
    "lat": "10.0845278",
    "lon": "76.2957278"
  },
  {
    "name": "Alingeel ward",
    "lat": "11.83024",
    "lon": "75.421774"
  },
  {
    "name": "Alinkal",
    "lat": "12.1594626",
    "lon": "75.208696"
  },
  {
    "name": "Alinkalparamabu",
    "lat": "10.682345",
    "lon": "76.527509"
  },
  {
    "name": "Alinuthazhe",
    "lat": "12.4667277",
    "lon": "75.2654471"
  },
  {
    "name": "Aliparamba",
    "lat": "10.9208814",
    "lon": "76.3188149"
  },
  {
    "name": "Alisery",
    "lat": "9.4878195",
    "lon": "76.3310895"
  },
  {
    "name": "Alissery",
    "lat": "10.882985",
    "lon": "75.909798"
  },
  {
    "name": "Aliyampurath laksham veed colony",
    "lat": "11.5903947",
    "lon": "75.640658"
  },
  {
    "name": "Aliyanmukku",
    "lat": "9.3392737",
    "lon": "76.9889151"
  },
  {
    "name": "Aliyanmukku Bus Stop",
    "lat": "9.339425",
    "lon": "76.989087"
  },
  {
    "name": "All Saints College",
    "lat": "8.4954864",
    "lon": "76.9086046"
  },
  {
    "name": "Allamkulam",
    "lat": "12.045527",
    "lon": "75.375257"
  },
  {
    "name": "Allappara",
    "lat": "9.729106",
    "lon": "76.660045"
  },
  {
    "name": "Allapra",
    "lat": "10.0975428",
    "lon": "76.4744527"
  },
  {
    "name": "Allapra Kurish Junction",
    "lat": "10.0954927",
    "lon": "76.4718624"
  },
  {
    "name": "Alletty",
    "lat": "8.5298598",
    "lon": "77.0212924"
  },
  {
    "name": "Alliance Junction",
    "lat": "9.954069",
    "lon": "76.3439609"
  },
  {
    "name": "Allikkal Muttam Colony",
    "lat": "11.6813427",
    "lon": "75.9997081"
  },
  {
    "name": "Allumkal",
    "lat": "9.345373",
    "lon": "76.983952"
  },
  {
    "name": "Allunkalkunnu",
    "lat": "9.71362",
    "lon": "76.652894"
  },
  {
    "name": "Allur",
    "lat": "10.896733",
    "lon": "75.973945"
  },
  {
    "name": "Ally",
    "lat": "11.3301112",
    "lon": "76.0268659"
  },
  {
    "name": "Aloor",
    "lat": "10.3411551",
    "lon": "76.2916934"
  },
  {
    "name": "Aloor Bus Stop",
    "lat": "12.4844672",
    "lon": "75.086187"
  },
  {
    "name": "Aloor-Chalakudy, Mala",
    "lat": "10.3404985",
    "lon": "76.2922146"
  },
  {
    "name": "Aloor-Irinjalakuda",
    "lat": "10.3411691",
    "lon": "76.2910078"
  },
  {
    "name": "Aloor-kodakara",
    "lat": "10.3415715",
    "lon": "76.2919652"
  },
  {
    "name": "Alpara",
    "lat": "9.4555781",
    "lon": "76.76285"
  },
  {
    "name": "Alpara Ambalam Bus Stop",
    "lat": "9.9101878",
    "lon": "76.6688665"
  },
  {
    "name": "Alpara Colony",
    "lat": "9.9097919",
    "lon": "76.6676591"
  },
  {
    "name": "Alpara Colony Bus Stop",
    "lat": "9.909719",
    "lon": "76.6674644"
  },
  {
    "name": "Alparamb",
    "lat": "11.154603",
    "lon": "75.930196"
  },
  {
    "name": "Alpattakkulamba",
    "lat": "11.003174",
    "lon": "76.065582"
  },
  {
    "name": "Alppara",
    "lat": "9.935562",
    "lon": "76.915109"
  },
  {
    "name": "Althara",
    "lat": "10.67309",
    "lon": "75.9952092"
  },
  {
    "name": "Althara bus stop",
    "lat": "10.6864855",
    "lon": "76.6580698"
  },
  {
    "name": "Altharamoodu",
    "lat": "9.2250333",
    "lon": "76.5293649"
  },
  {
    "name": "Alukal Bazar",
    "lat": "9.8084271",
    "lon": "76.3529174"
  },
  {
    "name": "Alukkal",
    "lat": "11.236286",
    "lon": "76.024468"
  },
  {
    "name": "Alukkathara",
    "lat": "10.291992",
    "lon": "76.213397"
  },
  {
    "name": "Alum Mukku",
    "lat": "8.8891003",
    "lon": "76.9330503"
  },
  {
    "name": "Alumanoor",
    "lat": "8.6573547",
    "lon": "76.9090856"
  },
  {
    "name": "Alumchuvadu",
    "lat": "9.812403",
    "lon": "76.495024"
  },
  {
    "name": "Alumkadavu",
    "lat": "9.0579739",
    "lon": "76.5063408"
  },
  {
    "name": "Alumkal",
    "lat": "9.313998",
    "lon": "76.7546003"
  },
  {
    "name": "Alumkoottam",
    "lat": "10.871028",
    "lon": "76.088395"
  },
  {
    "name": "Alumkulam Bus Stop",
    "lat": "10.8623227",
    "lon": "76.3909258"
  },
  {
    "name": "Alumkuzhy",
    "lat": "8.6724548",
    "lon": "77.0333268"
  },
  {
    "name": "Alummodu Jn.",
    "lat": "9.6462281",
    "lon": "76.6341294"
  },
  {
    "name": "Alummood",
    "lat": "9.5940573",
    "lon": "76.5023592"
  },
  {
    "name": "Alummoode",
    "lat": "9.160597",
    "lon": "76.678069"
  },
  {
    "name": "Alumparamb",
    "lat": "10.4031294",
    "lon": "76.1948287"
  },
  {
    "name": "Alumthara",
    "lat": "11.3471284",
    "lon": "75.9414043"
  },
  {
    "name": "Alumthuruthy",
    "lat": "9.353527",
    "lon": "76.537291"
  },
  {
    "name": "Alumthuruthy Bridge bus stop",
    "lat": "9.3461559",
    "lon": "76.5354528"
  },
  {
    "name": "Alumthuruthy East",
    "lat": "9.349121",
    "lon": "76.545588"
  },
  {
    "name": "Alungal",
    "lat": "11.0040536",
    "lon": "75.937526"
  },
  {
    "name": "Alungal , Velimukku",
    "lat": "11.0844167",
    "lon": "75.890352"
  },
  {
    "name": "Alungaparamb",
    "lat": "11.152584",
    "lon": "76.080623"
  },
  {
    "name": "Alungapatta",
    "lat": "11.1304235",
    "lon": "76.039363"
  },
  {
    "name": "Alunkal",
    "lat": "9.68682",
    "lon": "76.3096854"
  },
  {
    "name": "Alunkal colony",
    "lat": "10.0895375",
    "lon": "76.3167847"
  },
  {
    "name": "Alur",
    "lat": "10.319444444",
    "lon": "76.279722222"
  },
  {
    "name": "Aluva",
    "lat": "10.1085363",
    "lon": "76.3508164"
  },
  {
    "name": "Aluva (duplicate)",
    "lat": "10.10468",
    "lon": "76.3565"
  },
  {
    "name": "Aluva KSRTC",
    "lat": "10.1068402",
    "lon": "76.3559367"
  },
  {
    "name": "Aluva KSRTC Stand",
    "lat": "10.1062524",
    "lon": "76.3562001"
  },
  {
    "name": "Aluva Metro Station",
    "lat": "10.1098953",
    "lon": "76.3494739"
  },
  {
    "name": "Aluva Palace",
    "lat": "10.1127353",
    "lon": "76.3566555"
  },
  {
    "name": "Aluva Police Station",
    "lat": "10.1029556",
    "lon": "76.3584376"
  },
  {
    "name": "Aluvila Junction Bus Stop",
    "lat": "9.1105743",
    "lon": "76.8536621"
  },
  {
    "name": "Aluvila SC colony",
    "lat": "9.1680205",
    "lon": "76.6056054"
  },
  {
    "name": "Aluvinpilakkil",
    "lat": "11.2720933",
    "lon": "75.8900947"
  },
  {
    "name": "Amakkad Colony",
    "lat": "10.8691727",
    "lon": "76.4611773"
  },
  {
    "name": "Amal jyothi bus stop",
    "lat": "9.5283876",
    "lon": "76.8236786"
  },
  {
    "name": "Amala Bus stop",
    "lat": "10.5627624",
    "lon": "76.1684687"
  },
  {
    "name": "Amala Nagar",
    "lat": "10.5620877",
    "lon": "76.1688914"
  },
  {
    "name": "Amalagiri",
    "lat": "9.5584414",
    "lon": "76.9517143"
  },
  {
    "name": "Amalagiri Bus Stop",
    "lat": "9.5588192",
    "lon": "76.9511524"
  },
  {
    "name": "Amalloor East",
    "lat": "9.394986",
    "lon": "76.591485"
  },
  {
    "name": "Amalloor West",
    "lat": "9.393299",
    "lon": "76.585725"
  },
  {
    "name": "Amanakara",
    "lat": "9.82086",
    "lon": "76.63687"
  },
  {
    "name": "Amandoor",
    "lat": "10.2499478",
    "lon": "76.1704659"
  },
  {
    "name": "Amapoyil",
    "lat": "11.142972",
    "lon": "76.296418"
  },
  {
    "name": "Amar Jawan",
    "lat": "10.5210965",
    "lon": "76.192269"
  },
  {
    "name": "Amara",
    "lat": "9.456547",
    "lon": "76.595204"
  },
  {
    "name": "Amarad",
    "lat": "11.497538",
    "lon": "75.9233213"
  },
  {
    "name": "Amarambalam South",
    "lat": "11.23033",
    "lon": "76.269485"
  },
  {
    "name": "Amaramkavu Ward",
    "lat": "9.889126",
    "lon": "76.691528"
  },
  {
    "name": "Amarapuri",
    "lat": "11.4470984",
    "lon": "75.847283"
  },
  {
    "name": "Amaravathi",
    "lat": "9.9573702",
    "lon": "76.2424165"
  },
  {
    "name": "Amaravathi Bus Stop",
    "lat": "9.5133262",
    "lon": "76.8884416"
  },
  {
    "name": "Amaravathy",
    "lat": "9.9582045",
    "lon": "76.2453052"
  },
  {
    "name": "Amaravathy ward",
    "lat": "9.957125",
    "lon": "76.246153"
  },
  {
    "name": "Amaravila",
    "lat": "8.3890931",
    "lon": "77.1051024"
  },
  {
    "name": "Amaravila bus stop",
    "lat": "8.3888811",
    "lon": "77.1007877"
  },
  {
    "name": "Amarippadam",
    "lat": "10.2766429",
    "lon": "76.1959737"
  },
  {
    "name": "Amayannoor",
    "lat": "9.621612",
    "lon": "76.6045689"
  },
  {
    "name": "Amayapra",
    "lat": "9.932197",
    "lon": "76.834262"
  },
  {
    "name": "Amayar",
    "lat": "9.729622",
    "lon": "77.163594"
  },
  {
    "name": "Amayattuvayal",
    "lat": "11.4926834",
    "lon": "75.812214"
  },
  {
    "name": "Amayoor",
    "lat": "11.1804",
    "lon": "76.107021"
  },
  {
    "name": "Amayur Road",
    "lat": "11.1697391",
    "lon": "76.1314444"
  },
  {
    "name": "Ambad Colony",
    "lat": "10.7470662",
    "lon": "76.6007921"
  },
  {
    "name": "Ambadi",
    "lat": "9.611262",
    "lon": "76.509339"
  },
  {
    "name": "Ambadi junction",
    "lat": "9.1639899",
    "lon": "76.6969079"
  },
  {
    "name": "Ambadimala",
    "lat": "9.9329431",
    "lon": "76.3827045"
  },
  {
    "name": "Ambadimoola",
    "lat": "10.0218242",
    "lon": "76.3379308"
  },
  {
    "name": "Ambady Junction",
    "lat": "9.6190945",
    "lon": "76.5104852"
  },
  {
    "name": "Ambakkad",
    "lat": "10.5411209",
    "lon": "76.1726029"
  },
  {
    "name": "Ambakuzhy",
    "lat": "9.5927224",
    "lon": "76.4853604"
  },
  {
    "name": "Ambal",
    "lat": "10.893146",
    "lon": "76.092109"
  },
  {
    "name": "Ambala Kadavu",
    "lat": "9.9993388",
    "lon": "76.2211953"
  },
  {
    "name": "Ambala Nada",
    "lat": "10.0047178",
    "lon": "76.3168059"
  },
  {
    "name": "Ambala Nada Junction-Perakam",
    "lat": "10.5999467",
    "lon": "76.021109"
  },
  {
    "name": "Ambala Padi",
    "lat": "10.1409824",
    "lon": "76.2178851"
  },
  {
    "name": "Ambala kulam",
    "lat": "11.2476777",
    "lon": "75.9792316"
  },
  {
    "name": "Ambala padi",
    "lat": "9.1433248",
    "lon": "76.8540375"
  },
  {
    "name": "Ambalacity",
    "lat": "10.895813",
    "lon": "76.10424"
  },
  {
    "name": "Ambalakadavu",
    "lat": "9.2311",
    "lon": "76.71856"
  },
  {
    "name": "Ambalakandi Colony",
    "lat": "11.3991959",
    "lon": "75.9710423"
  },
  {
    "name": "Ambalakandy",
    "lat": "11.971895",
    "lon": "75.762116"
  },
  {
    "name": "Ambalakavala",
    "lat": "9.6315088",
    "lon": "76.5148336"
  },
  {
    "name": "Ambalakkadavu",
    "lat": "9.2301816",
    "lon": "76.7107258"
  },
  {
    "name": "Ambalakkadu",
    "lat": "10.4756283",
    "lon": "76.1234147"
  },
  {
    "name": "Ambalakkandy",
    "lat": "11.3566267",
    "lon": "75.9509622"
  },
  {
    "name": "Ambalakkavala",
    "lat": "9.743383",
    "lon": "77.1127251"
  },
  {
    "name": "Ambalakkavala Bus Stop",
    "lat": "9.7431497",
    "lon": "77.1127635"
  },
  {
    "name": "Ambalakkunnu Colony",
    "lat": "11.7620638",
    "lon": "76.0490091"
  },
  {
    "name": "Ambalakkuzhy",
    "lat": "9.5928789",
    "lon": "76.4839567"
  },
  {
    "name": "Ambalakunnu",
    "lat": "11.278693",
    "lon": "76.309999"
  },
  {
    "name": "Ambalam",
    "lat": "10.0093271",
    "lon": "76.2429547"
  },
  {
    "name": "Ambalam Bus Stop",
    "lat": "11.8820913",
    "lon": "75.3486971"
  },
  {
    "name": "Ambalam Pady",
    "lat": "10.0254395",
    "lon": "76.608905"
  },
  {
    "name": "Ambalam Ward",
    "lat": "9.901337",
    "lon": "76.71269"
  },
  {
    "name": "Ambalamedu",
    "lat": "9.8340348",
    "lon": "77.0593887"
  },
  {
    "name": "Ambalamedu Post Office",
    "lat": "9.9836258",
    "lon": "76.3892634"
  },
  {
    "name": "Ambalamkavu",
    "lat": "10.5422598",
    "lon": "76.143227"
  },
  {
    "name": "Ambalamkunn Colony",
    "lat": "10.8469325",
    "lon": "76.4531526"
  },
  {
    "name": "Ambalamkunn colony",
    "lat": "10.9820062",
    "lon": "76.3186016"
  },
  {
    "name": "Ambalamkunn madampara",
    "lat": "10.9893048",
    "lon": "76.3335192"
  },
  {
    "name": "Ambalamkunnu",
    "lat": "9.8815111",
    "lon": "76.5950112"
  },
  {
    "name": "Ambalampadi",
    "lat": "9.9661269",
    "lon": "76.6615025"
  },
  {
    "name": "Ambalampady Bus Stop",
    "lat": "9.9793463",
    "lon": "76.5506367"
  },
  {
    "name": "Ambalampady Bus stop",
    "lat": "9.9794784",
    "lon": "76.5506347"
  },
  {
    "name": "Ambalamugal Ambalam",
    "lat": "9.9555255",
    "lon": "76.361517"
  },
  {
    "name": "Ambalamukku",
    "lat": "8.532538",
    "lon": "76.9622269"
  },
  {
    "name": "AmbalamukkuBusStop",
    "lat": "9.2506946",
    "lon": "76.532394"
  },
  {
    "name": "Ambalanada",
    "lat": "10.4640725",
    "lon": "76.1977999"
  },
  {
    "name": "Ambalanada Parappuram",
    "lat": "10.6753301",
    "lon": "76.3082768"
  },
  {
    "name": "Ambalangadi",
    "lat": "11.1691381",
    "lon": "75.8354044"
  },
  {
    "name": "Ambalapadikudi",
    "lat": "10.218483",
    "lon": "77.034784"
  },
  {
    "name": "Ambalapady",
    "lat": "10.0490767",
    "lon": "76.4250169"
  },
  {
    "name": "Ambalapady Bus Stop",
    "lat": "10.0252445",
    "lon": "76.6089527"
  },
  {
    "name": "Ambalapadykudy Tribal Settlement, Edamalakudy",
    "lat": "10.1901313",
    "lon": "76.9613615"
  },
  {
    "name": "Ambalapara",
    "lat": "10.8327898",
    "lon": "76.4114113"
  },
  {
    "name": "Ambalaparamb Colony",
    "lat": "10.865552",
    "lon": "76.4320227"
  },
  {
    "name": "Ambalaparamb colony",
    "lat": "10.9742349",
    "lon": "76.3240629"
  },
  {
    "name": "Ambalaparambu Colony",
    "lat": "11.0590173",
    "lon": "76.2715245"
  },
  {
    "name": "Ambalappad",
    "lat": "11.3755432",
    "lon": "75.80814"
  },
  {
    "name": "Ambalappadi",
    "lat": "11.1441329",
    "lon": "76.1199571"
  },
  {
    "name": "Ambalappadi Juction",
    "lat": "11.36718",
    "lon": "76.2746266"
  },
  {
    "name": "Ambalappadi, Kariparambu",
    "lat": "11.0425551",
    "lon": "75.902098"
  },
  {
    "name": "Ambalappadu",
    "lat": "11.3633824",
    "lon": "75.823254"
  },
  {
    "name": "Ambalappara",
    "lat": "11.0622766",
    "lon": "76.3852199"
  },
  {
    "name": "Ambalapparambu",
    "lat": "10.953104",
    "lon": "76.096559"
  },
  {
    "name": "Ambalappoyil School",
    "lat": "11.4146005",
    "lon": "75.8347165"
  },
  {
    "name": "Ambalappuram SC Colony",
    "lat": "10.7491521",
    "lon": "76.6556614"
  },
  {
    "name": "Ambalappuzha",
    "lat": "9.3833013",
    "lon": "76.3678474"
  },
  {
    "name": "Ambalapuram",
    "lat": "11.992272",
    "lon": "75.295119"
  },
  {
    "name": "Ambalapuzha",
    "lat": "9.3799326",
    "lon": "76.3634769"
  },
  {
    "name": "Ambalathara",
    "lat": "8.4510209",
    "lon": "76.9517559"
  },
  {
    "name": "Ambalathara bus stop",
    "lat": "12.3220744",
    "lon": "75.1305728"
  },
  {
    "name": "Ambalathara, Thiruvananthapuram",
    "lat": "8.47444",
    "lon": "76.9475"
  },
  {
    "name": "Ambalathazham",
    "lat": "10.0181749",
    "lon": "76.4268496"
  },
  {
    "name": "Ambalathigal",
    "lat": "12.3952564",
    "lon": "75.0518221"
  },
  {
    "name": "Ambalathingal",
    "lat": "11.085573",
    "lon": "76.098736"
  },
  {
    "name": "Ambalathinkal Junction",
    "lat": "9.358955",
    "lon": "76.6081975"
  },
  {
    "name": "Ambalathinkara",
    "lat": "12.321972",
    "lon": "75.129633"
  },
  {
    "name": "Ambalathu Kulangara",
    "lat": "11.3399433",
    "lon": "75.8101262"
  },
  {
    "name": "Ambalathukara",
    "lat": "12.3246226",
    "lon": "75.1261572"
  },
  {
    "name": "Ambalathumkala",
    "lat": "8.9869462",
    "lon": "76.7343377"
  },
  {
    "name": "Ambalathumukku",
    "lat": "8.4937391",
    "lon": "76.936468"
  },
  {
    "name": "Ambalavalavu Bus Stop",
    "lat": "9.5005832",
    "lon": "76.8409323"
  },
  {
    "name": "Ambalavattam",
    "lat": "11.081375",
    "lon": "76.161738"
  },
  {
    "name": "Ambalavattom",
    "lat": "10.8045826",
    "lon": "76.3530788"
  },
  {
    "name": "Ambalavayal",
    "lat": "11.6192026",
    "lon": "76.2120176"
  },
  {
    "name": "Ambalavayal Bus Stop",
    "lat": "9.6572062",
    "lon": "76.7368006"
  },
  {
    "name": "Ambalithazha",
    "lat": "11.5566469",
    "lon": "75.753384"
  },
  {
    "name": "Amballoor Pallithazham Bus Stop",
    "lat": "9.8731276",
    "lon": "76.3951936"
  },
  {
    "name": "Amballur",
    "lat": "10.4326889",
    "lon": "76.2678112"
  },
  {
    "name": "Ambanad Hills",
    "lat": "8.9984754",
    "lon": "77.0905875"
  },
  {
    "name": "Ambanadu",
    "lat": "11.8954099",
    "lon": "75.5036687"
  },
  {
    "name": "Ambanakulangara",
    "lat": "9.5645411",
    "lon": "76.346339"
  },
  {
    "name": "Ambangad",
    "lat": "12.41297",
    "lon": "75.057832"
  },
  {
    "name": "Ambapuram",
    "lat": "12.452764",
    "lon": "75.039164"
  },
  {
    "name": "Ambara Nirappel",
    "lat": "9.6907601",
    "lon": "76.7439329"
  },
  {
    "name": "Ambathai Colony",
    "lat": "9.2092293",
    "lon": "76.6978488"
  },
  {
    "name": "Ambattu Junction",
    "lat": "10.1005578",
    "lon": "76.3711746"
  },
  {
    "name": "Ambattu Padi",
    "lat": "11.4458405",
    "lon": "76.003144"
  },
  {
    "name": "AmbattuKandam",
    "lat": "9.8670672",
    "lon": "76.6327041"
  },
  {
    "name": "Ambattubhagom",
    "lat": "9.406393",
    "lon": "76.656253"
  },
  {
    "name": "Ambattukavu",
    "lat": "10.080671",
    "lon": "76.3392534"
  },
  {
    "name": "Ambattumali",
    "lat": "10.1108999",
    "lon": "76.3187921"
  },
  {
    "name": "Ambattupalayam",
    "lat": "10.6913931",
    "lon": "76.7243975"
  },
  {
    "name": "Ambattuparambu",
    "lat": "10.686849",
    "lon": "76.493908"
  },
  {
    "name": "Ambayakadu",
    "lat": "11.852862",
    "lon": "75.610807"
  },
  {
    "name": "Ambayappara",
    "lat": "11.543555",
    "lon": "75.8068353"
  },
  {
    "name": "Ambayathode",
    "lat": "11.4285492",
    "lon": "75.947515"
  },
  {
    "name": "Ambazhachal",
    "lat": "10.018184",
    "lon": "77.0151447"
  },
  {
    "name": "Ambazhakkad",
    "lat": "10.2625351",
    "lon": "76.288992"
  },
  {
    "name": "Ambazhapara Colony",
    "lat": "11.5548797",
    "lon": "75.810061"
  },
  {
    "name": "Ambazhaparambu",
    "lat": "11.079226",
    "lon": "76.29792"
  },
  {
    "name": "Ambedekar Colony",
    "lat": "9.7748896",
    "lon": "76.6396646"
  },
  {
    "name": "Ambedhkar Colony",
    "lat": "10.0964499",
    "lon": "76.3191795"
  },
  {
    "name": "Ambedkar",
    "lat": "9.42766",
    "lon": "76.515769"
  },
  {
    "name": "Ambedkar Colony",
    "lat": "11.8337791",
    "lon": "76.0748196"
  },
  {
    "name": "Ambedkar Colony, Puducode",
    "lat": "10.6591252",
    "lon": "76.4585269"
  },
  {
    "name": "Ambedkar Gramam",
    "lat": "11.074703",
    "lon": "75.968854"
  },
  {
    "name": "Ambedkar SC Colony",
    "lat": "10.8306321",
    "lon": "76.0006767"
  },
  {
    "name": "Ambedkar colony",
    "lat": "10.6758075",
    "lon": "76.4698598"
  },
  {
    "name": "Ambedkar colony, Thovala",
    "lat": "9.8011826",
    "lon": "77.1211358"
  },
  {
    "name": "Ambedkar gramam colony",
    "lat": "8.820616",
    "lon": "76.9469498"
  },
  {
    "name": "Ambedkargramam",
    "lat": "10.557984",
    "lon": "76.092386"
  },
  {
    "name": "Ambethkar Gramam",
    "lat": "10.5987772",
    "lon": "76.1697161"
  },
  {
    "name": "Ambhala Kavala",
    "lat": "9.7524402",
    "lon": "77.131393"
  },
  {
    "name": "Ambhalam",
    "lat": "10.0658161",
    "lon": "76.3001695"
  },
  {
    "name": "Ambhalapady",
    "lat": "9.9357166",
    "lon": "76.4221886"
  },
  {
    "name": "Ambika Nagar",
    "lat": "12.4405345",
    "lon": "75.0124177"
  },
  {
    "name": "Ambika market",
    "lat": "9.6715525",
    "lon": "76.4082653"
  },
  {
    "name": "Ambilad",
    "lat": "11.839962",
    "lon": "75.54852"
  },
  {
    "name": "Ambilady",
    "lat": "12.4446799",
    "lon": "75.1671159"
  },
  {
    "name": "Ambiloly",
    "lat": "11.2409837",
    "lon": "75.8637714"
  },
  {
    "name": "Ambittampotty",
    "lat": "11.467271",
    "lon": "76.244631"
  },
  {
    "name": "Amboori",
    "lat": "8.5016585",
    "lon": "77.1910541"
  },
  {
    "name": "Ambrammel Colony",
    "lat": "11.3249262",
    "lon": "75.8829572"
  },
  {
    "name": "Ambujam Bus Stop",
    "lat": "10.7600362",
    "lon": "76.7058749"
  },
  {
    "name": "Ambukuthy",
    "lat": "11.8148761",
    "lon": "76.0069409"
  },
  {
    "name": "Ameda",
    "lat": "9.8967454",
    "lon": "76.3650411"
  },
  {
    "name": "Ameparambu",
    "lat": "10.1351255",
    "lon": "76.2257978"
  },
  {
    "name": "Amichakari",
    "lat": "9.379578",
    "lon": "76.518981"
  },
  {
    "name": "Ammaani",
    "lat": "11.8442378",
    "lon": "76.0648786"
  },
  {
    "name": "Ammachiveedu",
    "lat": "8.8890045",
    "lon": "76.5752206"
  },
  {
    "name": "Ammadam",
    "lat": "10.4561011",
    "lon": "76.1846644"
  },
  {
    "name": "Ammadam Jn.",
    "lat": "10.4589652",
    "lon": "76.191962"
  },
  {
    "name": "Ammakandakara",
    "lat": "9.1681287",
    "lon": "76.7140127"
  },
  {
    "name": "Ammamkulam",
    "lat": "12.12154",
    "lon": "75.424436"
  },
  {
    "name": "Ammanappara",
    "lat": "12.083419",
    "lon": "75.3279321"
  },
  {
    "name": "Ammanchery",
    "lat": "9.6424662",
    "lon": "76.5337879"
  },
  {
    "name": "Ammankari",
    "lat": "9.592293",
    "lon": "76.426206"
  },
  {
    "name": "Ammankuzhy",
    "lat": "10.5910432",
    "lon": "76.2094781"
  },
  {
    "name": "Ammannada",
    "lat": "8.8876781",
    "lon": "76.6111427"
  },
  {
    "name": "Ammannada Bus Stop",
    "lat": "8.8876698",
    "lon": "76.6116389"
  },
  {
    "name": "Ammarathumukku",
    "lat": "8.8164403",
    "lon": "76.7062533"
  },
  {
    "name": "Ammarathumukku Paravur",
    "lat": "8.8160659",
    "lon": "76.7067416"
  },
  {
    "name": "Ammarathumukku Paripally",
    "lat": "8.8161744",
    "lon": "76.7065266"
  },
  {
    "name": "Ammavanpady",
    "lat": "9.8100734",
    "lon": "77.2361162"
  },
  {
    "name": "Ammaveedu",
    "lat": "8.9934821",
    "lon": "76.5588714"
  },
  {
    "name": "Ammayath SC Colony",
    "lat": "10.8466832",
    "lon": "75.991922"
  },
  {
    "name": "Ammaykkad Colony",
    "lat": "11.4287207",
    "lon": "75.9971999"
  },
  {
    "name": "Amminikkad",
    "lat": "10.9675179",
    "lon": "76.2688009"
  },
  {
    "name": "Amminnikode bus stop",
    "lat": "12.2253414",
    "lon": "75.1719233"
  },
  {
    "name": "Ammokam Chalil Colony",
    "lat": "11.5009453",
    "lon": "75.748154"
  },
  {
    "name": "Ampalamkunnu",
    "lat": "8.9",
    "lon": "76.78333333"
  },
  {
    "name": "Ampalanirappu",
    "lat": "9.0581913",
    "lon": "76.8176705"
  },
  {
    "name": "Ampara",
    "lat": "9.7041781",
    "lon": "76.7420765"
  },
  {
    "name": "Amparanirappel",
    "lat": "9.691329",
    "lon": "76.744441"
  },
  {
    "name": "Ampazhathumchal",
    "lat": "12.094014",
    "lon": "75.52493"
  },
  {
    "name": "Amrita Institute of Medical Science",
    "lat": "10.0338856",
    "lon": "76.2940453"
  },
  {
    "name": "Amritapuri",
    "lat": "9.0880476",
    "lon": "76.487702"
  },
  {
    "name": "Amrutha Nagar",
    "lat": "8.4769618",
    "lon": "76.9761532"
  },
  {
    "name": "Amsakacheri",
    "lat": "10.7853413",
    "lon": "76.0011072"
  },
  {
    "name": "Ana mukku",
    "lat": "11.5209692",
    "lon": "75.8452186"
  },
  {
    "name": "Anaappara",
    "lat": "11.8464372",
    "lon": "76.0368747"
  },
  {
    "name": "Anabagilu",
    "lat": "12.5069521",
    "lon": "74.989374"
  },
  {
    "name": "Anachal",
    "lat": "10.1417417",
    "lon": "76.2627253"
  },
  {
    "name": "Anackal",
    "lat": "10.8585819",
    "lon": "76.6967438"
  },
  {
    "name": "Anackampoyil",
    "lat": "11.4317183",
    "lon": "76.0566867"
  },
  {
    "name": "Anad",
    "lat": "8.6330743",
    "lon": "77.0110095"
  },
  {
    "name": "Anadiyil Hospital",
    "lat": "8.5100067",
    "lon": "76.942457"
  },
  {
    "name": "Anaganadi",
    "lat": "10.8152211",
    "lon": "76.3376047"
  },
  {
    "name": "Anakallu",
    "lat": "9.4505832",
    "lon": "76.9511736"
  },
  {
    "name": "Anakallumpara",
    "lat": "11.3916181",
    "lon": "76.0754252"
  },
  {
    "name": "Anakkadu",
    "lat": "10.4848579",
    "lon": "76.1215666"
  },
  {
    "name": "Anakkadu Vadakku",
    "lat": "10.4922426",
    "lon": "76.1177256"
  },
  {
    "name": "Anakkal",
    "lat": "9.5767785",
    "lon": "76.7871401"
  },
  {
    "name": "Anakkallu",
    "lat": "9.4813326",
    "lon": "76.7398731"
  },
  {
    "name": "Anakkallu Colony",
    "lat": "9.7921412",
    "lon": "76.6857184"
  },
  {
    "name": "Anakkampoyil",
    "lat": "11.4377028",
    "lon": "76.0613077"
  },
  {
    "name": "Anakkapara",
    "lat": "10.6206826",
    "lon": "76.5086354"
  },
  {
    "name": "Anakkara",
    "lat": "9.6646996",
    "lon": "77.1580992"
  },
  {
    "name": "Anakkayam",
    "lat": "11.0891491",
    "lon": "76.1209271"
  },
  {
    "name": "Anakkottupuram",
    "lat": "11.163902",
    "lon": "76.107139"
  },
  {
    "name": "Anakkulam",
    "lat": "10.1608204",
    "lon": "76.9126222"
  },
  {
    "name": "Anakkulam North",
    "lat": "10.169579",
    "lon": "76.925699"
  },
  {
    "name": "Anakkulam South",
    "lat": "10.151162",
    "lon": "76.913492"
  },
  {
    "name": "Anakkuzhi",
    "lat": "9.622949",
    "lon": "77.073506"
  },
  {
    "name": "Anakkuzhy",
    "lat": "12.3478081",
    "lon": "75.1774685"
  },
  {
    "name": "Anakuthi",
    "lat": "9.7682764",
    "lon": "77.1379277"
  },
  {
    "name": "Anakuthy",
    "lat": "9.765983",
    "lon": "77.122477"
  },
  {
    "name": "Anakuthy Bus stop",
    "lat": "9.2260803",
    "lon": "76.867888"
  },
  {
    "name": "Anakuzhy",
    "lat": "9.710824",
    "lon": "77.034613"
  },
  {
    "name": "Anamala",
    "lat": "9.6846803",
    "lon": "76.5385609"
  },
  {
    "name": "Anamangad",
    "lat": "10.9318364",
    "lon": "76.2659858"
  },
  {
    "name": "Anamanjal",
    "lat": "12.376263",
    "lon": "75.3086186"
  },
  {
    "name": "Anamukku",
    "lat": "9.499611",
    "lon": "76.5180597"
  },
  {
    "name": "Anamukku Bus Stop",
    "lat": "9.5945888",
    "lon": "76.312139"
  },
  {
    "name": "Ananda Junction",
    "lat": "9.0941281",
    "lon": "76.5258251"
  },
  {
    "name": "Anandapally",
    "lat": "9.1750543",
    "lon": "76.7412521"
  },
  {
    "name": "Anandappally",
    "lat": "9.1751982",
    "lon": "76.7411951"
  },
  {
    "name": "Anandapuram",
    "lat": "10.3803747",
    "lon": "76.2623595"
  },
  {
    "name": "Anandapuram Centre",
    "lat": "10.3777912",
    "lon": "76.2558949"
  },
  {
    "name": "Anandasramam",
    "lat": "9.459395",
    "lon": "76.546521"
  },
  {
    "name": "Anandavalleeswaram",
    "lat": "8.8938118",
    "lon": "76.572889"
  },
  {
    "name": "Anandeswaram",
    "lat": "9.3358485",
    "lon": "76.3738298"
  },
  {
    "name": "Anandhapuram Bus Stop",
    "lat": "11.3247004",
    "lon": "75.7451375"
  },
  {
    "name": "Anandharamapuram",
    "lat": "9.146983",
    "lon": "76.759036"
  },
  {
    "name": "Anangadi",
    "lat": "11.1112388",
    "lon": "75.8356331"
  },
  {
    "name": "Anangadi South",
    "lat": "11.10578",
    "lon": "75.837951"
  },
  {
    "name": "Anangoor",
    "lat": "12.5165717",
    "lon": "75.0054377"
  },
  {
    "name": "Anantha Narayanapuram",
    "lat": "9.483412",
    "lon": "76.3445269"
  },
  {
    "name": "Ananthampalla",
    "lat": "12.2516579",
    "lon": "75.1087302"
  },
  {
    "name": "Ananthapuri Auditorium",
    "lat": "8.492926",
    "lon": "76.9633631"
  },
  {
    "name": "Ananthayoor",
    "lat": "11.22912",
    "lon": "75.938242"
  },
  {
    "name": "Anapalam",
    "lat": "11.158766",
    "lon": "76.038828"
  },
  {
    "name": "Anapanthi",
    "lat": "12.025772",
    "lon": "75.734892"
  },
  {
    "name": "Anapanthi Kavala",
    "lat": "12.036383",
    "lon": "75.715869"
  },
  {
    "name": "Anaparakkal",
    "lat": "11.4271123",
    "lon": "75.8716998"
  },
  {
    "name": "Anappaara",
    "lat": "8.979989",
    "lon": "76.6368466"
  },
  {
    "name": "Anappadi",
    "lat": "10.859403",
    "lon": "75.955491"
  },
  {
    "name": "Anappalam",
    "lat": "11.773585",
    "lon": "75.607578"
  },
  {
    "name": "Anappalum",
    "lat": "9.70415",
    "lon": "76.995556"
  },
  {
    "name": "Anappamkuzhi",
    "lat": "11.045896",
    "lon": "76.253758"
  },
  {
    "name": "Anappanthy",
    "lat": "12.0265219",
    "lon": "75.7333294"
  },
  {
    "name": "Anappara",
    "lat": "10.1749432",
    "lon": "76.3530024"
  },
  {
    "name": "Anappara Bus Stop",
    "lat": "11.305145",
    "lon": "75.8892398"
  },
  {
    "name": "Anappara Colony",
    "lat": "11.6875784",
    "lon": "75.9849982"
  },
  {
    "name": "Anappetty",
    "lat": "8.6583484",
    "lon": "77.0622236"
  },
  {
    "name": "Anappuzha",
    "lat": "10.2068567",
    "lon": "76.2143704"
  },
  {
    "name": "Anaprambal",
    "lat": "9.353353",
    "lon": "76.5002695"
  },
  {
    "name": "Anarkodu",
    "lat": "9.246367",
    "lon": "76.699399"
  },
  {
    "name": "Anassery Kavala",
    "lat": "9.7554682",
    "lon": "76.6212936"
  },
  {
    "name": "Anaswara nagar",
    "lat": "10.4663978",
    "lon": "76.1945589"
  },
  {
    "name": "Anathadam",
    "lat": "10.355521",
    "lon": "76.3014222"
  },
  {
    "name": "Anavathil",
    "lat": "9.9577238",
    "lon": "76.2579662"
  },
  {
    "name": "Anavathil Junction",
    "lat": "10.0701577",
    "lon": "76.3159114"
  },
  {
    "name": "Anavilasam",
    "lat": "9.686708",
    "lon": "77.086252"
  },
  {
    "name": "Anaviratty",
    "lat": "10.027042",
    "lon": "76.987708"
  },
  {
    "name": "Anayadi",
    "lat": "12.0566479",
    "lon": "75.628579"
  },
  {
    "name": "Anayamkunnu",
    "lat": "11.3160312",
    "lon": "76.0067621"
  },
  {
    "name": "Anayamkunnu Bus Stop",
    "lat": "11.3161392",
    "lon": "76.0066037"
  },
  {
    "name": "Anayamkunnu West",
    "lat": "11.3212894",
    "lon": "76.0087878"
  },
  {
    "name": "Anayara",
    "lat": "8.5092537",
    "lon": "76.9167684"
  },
  {
    "name": "Anayarangadi",
    "lat": "11.1352684",
    "lon": "75.8436843"
  },
  {
    "name": "Anayirankal",
    "lat": "10.007819",
    "lon": "77.202859"
  },
  {
    "name": "Anayod",
    "lat": "11.3326342",
    "lon": "76.0635692"
  },
  {
    "name": "Anchachavidi",
    "lat": "11.187863",
    "lon": "76.296805"
  },
  {
    "name": "Anchakallu Bus Stop",
    "lat": "10.5119084",
    "lon": "76.0568927"
  },
  {
    "name": "Anchakkala",
    "lat": "9.278103",
    "lon": "76.775424"
  },
  {
    "name": "Anchakulam",
    "lat": "9.945576",
    "lon": "76.7610481"
  },
  {
    "name": "Anchal",
    "lat": "8.9292657",
    "lon": "76.9065012"
  },
  {
    "name": "Anchalassery",
    "lat": "9.512524",
    "lon": "76.502762"
  },
  {
    "name": "Anchalkutty",
    "lat": "9.382044",
    "lon": "76.562626"
  },
  {
    "name": "Anchalpetty",
    "lat": "9.9038628",
    "lon": "76.5172184"
  },
  {
    "name": "Anchalummood",
    "lat": "8.9324286",
    "lon": "76.6041122"
  },
  {
    "name": "Ancham Mile",
    "lat": "11.7495087",
    "lon": "76.0176012"
  },
  {
    "name": "Ancham Peedika",
    "lat": "11.7546872",
    "lon": "75.9416971"
  },
  {
    "name": "Ancham peedika",
    "lat": "11.5321801",
    "lon": "75.7309268"
  },
  {
    "name": "Anchamayil",
    "lat": "11.2461665",
    "lon": "76.2888256"
  },
  {
    "name": "Anchamparathy",
    "lat": "10.2662585",
    "lon": "76.1740858"
  },
  {
    "name": "Anchampeedika",
    "lat": "11.981466",
    "lon": "75.356869"
  },
  {
    "name": "Anchampeedika Bus stop",
    "lat": "11.9782387",
    "lon": "75.3508136"
  },
  {
    "name": "Anchampeedika, Kannur",
    "lat": "11.978491",
    "lon": "75.351041"
  },
  {
    "name": "Anchangaadi",
    "lat": "10.0044628",
    "lon": "76.2207392"
  },
  {
    "name": "Anchangadi",
    "lat": "10.4640622",
    "lon": "76.0710758"
  },
  {
    "name": "Anchani",
    "lat": "9.510846",
    "lon": "76.620434"
  },
  {
    "name": "Anchapetty Kalampur",
    "lat": "9.9986571",
    "lon": "76.6269407"
  },
  {
    "name": "Anchapra",
    "lat": "9.86604",
    "lon": "76.686367"
  },
  {
    "name": "Anchekhar Colony",
    "lat": "9.3347755",
    "lon": "76.9107969"
  },
  {
    "name": "Anchelpetty",
    "lat": "9.9045646",
    "lon": "76.5166104"
  },
  {
    "name": "Ancheri ward",
    "lat": "10.4984072",
    "lon": "76.2417779"
  },
  {
    "name": "Anchilippa",
    "lat": "9.5372017",
    "lon": "76.7923965"
  },
  {
    "name": "Anchilippa Bus Stop",
    "lat": "9.5386452",
    "lon": "76.7925018"
  },
  {
    "name": "Anchiri",
    "lat": "9.856186",
    "lon": "76.753453"
  },
  {
    "name": "Anchukallummoodu",
    "lat": "8.893445",
    "lon": "76.5677362"
  },
  {
    "name": "Anchukandam",
    "lat": "11.6528968",
    "lon": "75.6493234"
  },
  {
    "name": "Anchukudy",
    "lat": "9.936813",
    "lon": "76.958603"
  },
  {
    "name": "Anchukuzhy",
    "lat": "9.294373",
    "lon": "76.93601"
  },
  {
    "name": "Anchumoola",
    "lat": "10.8417175",
    "lon": "76.1178732"
  },
  {
    "name": "Anchumukku",
    "lat": "9.8045947",
    "lon": "77.1274311"
  },
  {
    "name": "Anchurali",
    "lat": "9.779877",
    "lon": "77.049821"
  },
  {
    "name": "Anchuruli",
    "lat": "9.7694314",
    "lon": "77.0762813"
  },
  {
    "name": "Anchuthengu",
    "lat": "8.6628906",
    "lon": "76.7634487"
  },
  {
    "name": "Andalloorkavu",
    "lat": "11.7947931",
    "lon": "75.4760862"
  },
  {
    "name": "Andallur Kadavu",
    "lat": "11.7984269",
    "lon": "75.4825805"
  },
  {
    "name": "Andaloor",
    "lat": "11.79547",
    "lon": "75.480084"
  },
  {
    "name": "Andamkovval",
    "lat": "12.0808008",
    "lon": "75.2409143"
  },
  {
    "name": "Andamukkam",
    "lat": "8.8836154",
    "lon": "76.5883669"
  },
  {
    "name": "Andaparambu",
    "lat": "10.6012274",
    "lon": "76.1424639"
  },
  {
    "name": "Andathode",
    "lat": "10.6765688",
    "lon": "75.9665218"
  },
  {
    "name": "Andavankudi",
    "lat": "10.216876",
    "lon": "77.068705"
  },
  {
    "name": "Andhakaranazhi",
    "lat": "9.7472012",
    "lon": "76.2857099"
  },
  {
    "name": "Andhakaranazhy",
    "lat": "9.747633",
    "lon": "76.2849326"
  },
  {
    "name": "Andhichantha",
    "lat": "9.19237",
    "lon": "76.801292"
  },
  {
    "name": "Andichanda",
    "lat": "9.208072",
    "lon": "76.807309"
  },
  {
    "name": "Andicompany",
    "lat": "10.0940291",
    "lon": "76.3597444"
  },
  {
    "name": "Andikkadenkuzhi",
    "lat": "11.203367",
    "lon": "75.861463"
  },
  {
    "name": "Andikkalam",
    "lat": "12.0610395",
    "lon": "75.3767925"
  },
  {
    "name": "Andikode",
    "lat": "11.3636766",
    "lon": "75.7532905"
  },
  {
    "name": "Andipeedika",
    "lat": "11.733608",
    "lon": "75.568669"
  },
  {
    "name": "Andipillikavu",
    "lat": "10.1780796",
    "lon": "76.2109011"
  },
  {
    "name": "Andiyoorkunnu",
    "lat": "11.194636",
    "lon": "75.930494"
  },
  {
    "name": "Andona",
    "lat": "11.4009451",
    "lon": "75.9400409"
  },
  {
    "name": "Andoor",
    "lat": "9.7380805",
    "lon": "76.6218711"
  },
  {
    "name": "Andrews Bus Stop",
    "lat": "10.5177063",
    "lon": "76.2317155"
  },
  {
    "name": "Anebagilu",
    "lat": "12.5045315",
    "lon": "74.9927724"
  },
  {
    "name": "Anekallu",
    "lat": "12.7525865",
    "lon": "74.9937859"
  },
  {
    "name": "Anela",
    "lat": "11.4597788",
    "lon": "75.7173121"
  },
  {
    "name": "Anela- Kuruvangad",
    "lat": "11.4487234",
    "lon": "75.7184413"
  },
  {
    "name": "Angaadi",
    "lat": "10.1706596",
    "lon": "76.1787975"
  },
  {
    "name": "Angadi",
    "lat": "10.0708338",
    "lon": "76.2787601"
  },
  {
    "name": "Angadi Town",
    "lat": "9.38494",
    "lon": "76.779593"
  },
  {
    "name": "Angadical High School",
    "lat": "9.173703",
    "lon": "76.832298"
  },
  {
    "name": "Angadical North",
    "lat": "9.198084",
    "lon": "76.806842"
  },
  {
    "name": "Angadickal",
    "lat": "9.197715",
    "lon": "76.7895262"
  },
  {
    "name": "Angadickal Bus stop",
    "lat": "9.3199759",
    "lon": "76.6228071"
  },
  {
    "name": "Angadickal North",
    "lat": "9.2077103",
    "lon": "76.7828579"
  },
  {
    "name": "Angadikadave church bus stop",
    "lat": "12.0347486",
    "lon": "75.7472454"
  },
  {
    "name": "Angadikadavu",
    "lat": "12.031252",
    "lon": "75.7443103"
  },
  {
    "name": "Angadimogar",
    "lat": "12.6341693",
    "lon": "75.0140009"
  },
  {
    "name": "Angadippuram North",
    "lat": "10.980686",
    "lon": "76.211782"
  },
  {
    "name": "Angadippuram South",
    "lat": "10.971023",
    "lon": "76.209699"
  },
  {
    "name": "Angadipuram",
    "lat": "10.9771438",
    "lon": "76.2017172"
  },
  {
    "name": "Angadipuram Bus Stop",
    "lat": "10.9775298",
    "lon": "76.2018465"
  },
  {
    "name": "Angadivayal Colony",
    "lat": "11.5978902",
    "lon": "76.1383681"
  },
  {
    "name": "Angakkalari",
    "lat": "12.4189954",
    "lon": "75.0300067"
  },
  {
    "name": "Angamaly",
    "lat": "10.1910284",
    "lon": "76.3874109"
  },
  {
    "name": "Angamaly Private Stand",
    "lat": "10.1834609",
    "lon": "76.3799952"
  },
  {
    "name": "Angamaly South",
    "lat": "10.1747183",
    "lon": "76.3749966"
  },
  {
    "name": "Angamaly Town",
    "lat": "10.1920056",
    "lon": "76.3885597"
  },
  {
    "name": "Angamoozhi",
    "lat": "9.374404",
    "lon": "77.091032"
  },
  {
    "name": "Angamoozhy",
    "lat": "9.358424",
    "lon": "76.9880267"
  },
  {
    "name": "Anganawadi",
    "lat": "10.1227932",
    "lon": "76.232439"
  },
  {
    "name": "Ange Mundankunnu Bus stop",
    "lat": "9.6252312",
    "lon": "76.6781093"
  },
  {
    "name": "Angel Voice",
    "lat": "9.9633463",
    "lon": "76.5665876"
  },
  {
    "name": "Angelvalley",
    "lat": "9.4274085",
    "lon": "76.9551202"
  },
  {
    "name": "Angelvalley Junction",
    "lat": "9.4240546",
    "lon": "76.9655116"
  },
  {
    "name": "Anicadu",
    "lat": "9.474513",
    "lon": "76.66454"
  },
  {
    "name": "Anicadu Chirapadi",
    "lat": "9.9682089",
    "lon": "76.6107164"
  },
  {
    "name": "Anicadu Palli",
    "lat": "9.9638955",
    "lon": "76.6162106"
  },
  {
    "name": "Anickad",
    "lat": "9.608954",
    "lon": "76.70259"
  },
  {
    "name": "Anikkadi",
    "lat": "12.2158463",
    "lon": "75.1793118"
  },
  {
    "name": "Anikkadu",
    "lat": "9.6052898",
    "lon": "76.7006078"
  },
  {
    "name": "Anikkara",
    "lat": "12.0495279",
    "lon": "75.2528734"
  },
  {
    "name": "Anikkari",
    "lat": "11.955517",
    "lon": "75.584816"
  },
  {
    "name": "Anikkunnu",
    "lat": "9.501227",
    "lon": "76.894843"
  },
  {
    "name": "Anikkuzha",
    "lat": "9.953817",
    "lon": "76.808376"
  },
  {
    "name": "Anikode",
    "lat": "11.4076934",
    "lon": "75.9796609"
  },
  {
    "name": "Anikode Mukku",
    "lat": "11.4211048",
    "lon": "75.9795973"
  },
  {
    "name": "Aninha",
    "lat": "12.4750874",
    "lon": "75.0332523"
  },
  {
    "name": "Anivayal",
    "lat": "9.581296",
    "lon": "76.637625"
  },
  {
    "name": "Aniyal",
    "lat": "10.0790683",
    "lon": "76.2105579"
  },
  {
    "name": "Aniyara Jn",
    "lat": "9.5093932",
    "lon": "76.6392609"
  },
  {
    "name": "Aniyaram",
    "lat": "11.738763",
    "lon": "75.5818748"
  },
  {
    "name": "Aniyaram Central",
    "lat": "11.724011",
    "lon": "75.584157"
  },
  {
    "name": "Aniyilappu",
    "lat": "9.716565",
    "lon": "76.792084"
  },
  {
    "name": "Anjampeedika",
    "lat": "11.6839558",
    "lon": "75.5433494"
  },
  {
    "name": "Anjanamukkude",
    "lat": "12.4577502",
    "lon": "75.2330931"
  },
  {
    "name": "Anjanattu",
    "lat": "9.7157029",
    "lon": "76.3200918"
  },
  {
    "name": "Anjangadi",
    "lat": "10.3986022",
    "lon": "76.1018872"
  },
  {
    "name": "Anjangadi Bus Stop",
    "lat": "10.2471647",
    "lon": "76.1491535"
  },
  {
    "name": "Anjappura",
    "lat": "11.0520078",
    "lon": "75.8564758"
  },
  {
    "name": "Anjarakandy",
    "lat": "11.8810892",
    "lon": "75.5078102"
  },
  {
    "name": "Anjarakandy Medical College",
    "lat": "11.8827953",
    "lon": "75.4986799"
  },
  {
    "name": "Anjilangadi",
    "lat": "11.0708805",
    "lon": "76.3277575"
  },
  {
    "name": "Anjilichuvadu",
    "lat": "10.0460699",
    "lon": "76.4492953"
  },
  {
    "name": "Anjilimood",
    "lat": "9.37468",
    "lon": "76.584232"
  },
  {
    "name": "Anjilimood Sasthamcotta",
    "lat": "9.0421029",
    "lon": "76.6146475"
  },
  {
    "name": "Anjilithanam",
    "lat": "9.419837",
    "lon": "76.5980627"
  },
  {
    "name": "Anjoor",
    "lat": "10.6399216",
    "lon": "76.0288393"
  },
  {
    "name": "Anjoottimangalam",
    "lat": "9.728938",
    "lon": "76.759183"
  },
  {
    "name": "Anjucent colony",
    "lat": "9.8815594",
    "lon": "76.4926774"
  },
  {
    "name": "Anjukulangara Colony",
    "lat": "10.7518706",
    "lon": "76.596829"
  },
  {
    "name": "Anjukunnu",
    "lat": "11.7526104",
    "lon": "76.0372835"
  },
  {
    "name": "Anjumala",
    "lat": "9.756413",
    "lon": "76.784402"
  },
  {
    "name": "Anjumala Colony",
    "lat": "9.1105779",
    "lon": "76.8075479"
  },
  {
    "name": "Anjumuri",
    "lat": "9.9806411",
    "lon": "76.3132987"
  },
  {
    "name": "Ankakalari",
    "lat": "11.478921",
    "lon": "75.7789022"
  },
  {
    "name": "Ankamaly Private Stand",
    "lat": "10.1837585",
    "lon": "76.3787985"
  },
  {
    "name": "Ankapparambu",
    "lat": "11.125339",
    "lon": "75.912783"
  },
  {
    "name": "Ankathayi",
    "lat": "11.3613631",
    "lon": "75.829554"
  },
  {
    "name": "Annadivayal",
    "lat": "9.5887982",
    "lon": "76.6004151"
  },
  {
    "name": "Annadka",
    "lat": "12.5901851",
    "lon": "75.1112241"
  },
  {
    "name": "Annakara",
    "lat": "10.5624373",
    "lon": "76.1069619"
  },
  {
    "name": "Annakkuttanchal",
    "lat": "11.586776",
    "lon": "75.8278226"
  },
  {
    "name": "Annallur",
    "lat": "10.2918735",
    "lon": "76.2916518"
  },
  {
    "name": "Annam Chira Colony",
    "lat": "11.3866304",
    "lon": "75.7306268"
  },
  {
    "name": "Annamanada Town",
    "lat": "10.2403014",
    "lon": "76.326002"
  },
  {
    "name": "Annamanada West",
    "lat": "10.2386575",
    "lon": "76.3173973"
  },
  {
    "name": "Annanad",
    "lat": "10.2762103",
    "lon": "76.3269833"
  },
  {
    "name": "Annanad Bus Stop",
    "lat": "10.2747618",
    "lon": "76.3213474"
  },
  {
    "name": "Annanad Junction Bus Stop",
    "lat": "10.2747755",
    "lon": "76.3214583"
  },
  {
    "name": "Annanadana Mandapam for Pilgrims (Now Empty Land)",
    "lat": "9.5709736",
    "lon": "76.9751679"
  },
  {
    "name": "Annapoorneswari Temple",
    "lat": "9.460468",
    "lon": "76.535155"
  },
  {
    "name": "Annapura Junction",
    "lat": "9.6333399",
    "lon": "76.3135399"
  },
  {
    "name": "Annassery",
    "lat": "11.3765667",
    "lon": "75.7743111"
  },
  {
    "name": "Annavattom",
    "lat": "9.414488",
    "lon": "76.590449"
  },
  {
    "name": "Annepalladka Colony",
    "lat": "12.601078",
    "lon": "75.024175"
  },
  {
    "name": "Annie valavu",
    "lat": "11.5314753",
    "lon": "75.857747"
  },
  {
    "name": "Annikkara",
    "lat": "10.2720781",
    "lon": "76.2119849"
  },
  {
    "name": "Annoatu",
    "lat": "9.2138698",
    "lon": "76.6255548"
  },
  {
    "name": "Annoor East",
    "lat": "12.128932",
    "lon": "75.212398"
  },
  {
    "name": "Annoor Kizhakkekovval",
    "lat": "12.137867",
    "lon": "75.208819"
  },
  {
    "name": "Annoor South",
    "lat": "12.12269",
    "lon": "75.21111"
  },
  {
    "name": "Annoor West",
    "lat": "12.127068",
    "lon": "75.200733"
  },
  {
    "name": "Anthatta",
    "lat": "11.4328976",
    "lon": "75.7065544"
  },
  {
    "name": "Anthichira",
    "lat": "9.111634",
    "lon": "76.722487"
  },
  {
    "name": "Anthikad North",
    "lat": "10.4644306",
    "lon": "76.1158669"
  },
  {
    "name": "Anthikad South",
    "lat": "10.4552604",
    "lon": "76.1190319"
  },
  {
    "name": "Anthikkad",
    "lat": "10.4583929",
    "lon": "76.1216927"
  },
  {
    "name": "Anthimahakalankavu",
    "lat": "10.6835078",
    "lon": "76.3468855"
  },
  {
    "name": "Anthinad",
    "lat": "9.7554892",
    "lon": "76.7012776"
  },
  {
    "name": "Anthinad East",
    "lat": "9.75638",
    "lon": "76.702618"
  },
  {
    "name": "Anthinad West",
    "lat": "9.745944",
    "lon": "76.694545"
  },
  {
    "name": "Anthiyalam",
    "lat": "9.7490707",
    "lon": "76.6751802"
  },
  {
    "name": "Anthoor",
    "lat": "11.9864839",
    "lon": "75.3793645"
  },
  {
    "name": "Anthyal",
    "lat": "9.8533029",
    "lon": "76.5303333"
  },
  {
    "name": "Anthyalamkavu",
    "lat": "9.335998",
    "lon": "76.756758"
  },
  {
    "name": "Anthyalamkudam",
    "lat": "10.841209",
    "lon": "75.988886"
  },
  {
    "name": "Anthyalankavu",
    "lat": "9.324728",
    "lon": "76.766251"
  },
  {
    "name": "Anungode",
    "lat": "11.919694",
    "lon": "75.768934"
  },
  {
    "name": "Anuruli",
    "lat": "10.35584",
    "lon": "76.2492907"
  },
  {
    "name": "Anvar Nagar Kuniyil",
    "lat": "11.245938",
    "lon": "76.023731"
  },
  {
    "name": "Anyanimoodu KSRTC bus stop",
    "lat": "8.4346792",
    "lon": "77.0266498"
  },
  {
    "name": "Anyartholu",
    "lat": "9.7631388",
    "lon": "77.1760409"
  },
  {
    "name": "Apla",
    "lat": "11.007328",
    "lon": "75.947001"
  },
  {
    "name": "Appachimedu",
    "lat": "9.4230359",
    "lon": "77.0678829"
  },
  {
    "name": "Appackal",
    "lat": "9.707476",
    "lon": "76.399993"
  },
  {
    "name": "Appakkadavu",
    "lat": "11.8967728",
    "lon": "75.4733576"
  },
  {
    "name": "Appakodu colony",
    "lat": "9.7942478",
    "lon": "76.4126497"
  },
  {
    "name": "Appanavayal",
    "lat": "11.6132752",
    "lon": "76.0542469"
  },
  {
    "name": "Appanchira",
    "lat": "9.774738",
    "lon": "76.4754458"
  },
  {
    "name": "Appangad",
    "lat": "10.0389951",
    "lon": "76.228629"
  },
  {
    "name": "Appangad North",
    "lat": "10.042517",
    "lon": "76.227289"
  },
  {
    "name": "Appangad South",
    "lat": "10.039104",
    "lon": "76.228956"
  },
  {
    "name": "Appapara",
    "lat": "11.9051947",
    "lon": "76.0330133"
  },
  {
    "name": "Appiyath",
    "lat": "10.991881",
    "lon": "75.94168"
  },
  {
    "name": "Appolo",
    "lat": "10.0620466",
    "lon": "76.3238154"
  },
  {
    "name": "Appuzha",
    "lat": "9.756917",
    "lon": "76.47745"
  },
  {
    "name": "Aprem Palli Bus Stop",
    "lat": "10.5166843",
    "lon": "76.2344206"
  },
  {
    "name": "Apsara Junction",
    "lat": "9.6823531",
    "lon": "76.3417158"
  },
  {
    "name": "Aquadect",
    "lat": "8.4219109",
    "lon": "77.1266411"
  },
  {
    "name": "Aquaduct",
    "lat": "11.4397267",
    "lon": "75.7107916"
  },
  {
    "name": "Aquinas Collage",
    "lat": "9.9130522",
    "lon": "76.2876966"
  },
  {
    "name": "Arabi",
    "lat": "12.065516",
    "lon": "75.689911"
  },
  {
    "name": "Arabic College",
    "lat": "9.279175",
    "lon": "76.803074"
  },
  {
    "name": "Arabikulam",
    "lat": "12.0868067",
    "lon": "75.6919898"
  },
  {
    "name": "Arackal Bus Stop",
    "lat": "8.9544463",
    "lon": "76.8668558"
  },
  {
    "name": "Arackal Society Junction",
    "lat": "8.9483984",
    "lon": "76.864127"
  },
  {
    "name": "Arackappara Ward",
    "lat": "9.886868",
    "lon": "76.70768"
  },
  {
    "name": "Aradana nagar",
    "lat": "8.5707487",
    "lon": "76.9404518"
  },
  {
    "name": "Aragettu Parambu",
    "lat": "11.770355",
    "lon": "75.5063"
  },
  {
    "name": "Arakkadavu",
    "lat": "9.9895927",
    "lon": "76.3292916"
  },
  {
    "name": "Arakkadavu Junction",
    "lat": "9.9922857",
    "lon": "76.3273564"
  },
  {
    "name": "Arakkal",
    "lat": "11.0038272",
    "lon": "75.9406897"
  },
  {
    "name": "Arakkal East",
    "lat": "11.6419728",
    "lon": "75.5682215"
  },
  {
    "name": "Arakkal ward",
    "lat": "11.863126",
    "lon": "75.380531"
  },
  {
    "name": "Arakkalpadi",
    "lat": "11.008549",
    "lon": "76.072695"
  },
  {
    "name": "Arakkalthazhe",
    "lat": "12.123334",
    "lon": "75.482238"
  },
  {
    "name": "Arakkanmala Colony",
    "lat": "10.7025876",
    "lon": "76.4407899"
  },
  {
    "name": "Arakkapady",
    "lat": "10.0604682",
    "lon": "76.4597784"
  },
  {
    "name": "Arakkathodu",
    "lat": "11.4733968",
    "lon": "75.895886"
  },
  {
    "name": "Arakkiladu",
    "lat": "11.6164178",
    "lon": "75.5959161"
  },
  {
    "name": "Arakkinar",
    "lat": "11.2048373",
    "lon": "75.805319"
  },
  {
    "name": "Arakkunnam",
    "lat": "9.8865406",
    "lon": "76.4293609"
  },
  {
    "name": "Arakkupady",
    "lat": "10.0603889",
    "lon": "76.4599031"
  },
  {
    "name": "Arakkuzha",
    "lat": "9.9317327",
    "lon": "76.5991789"
  },
  {
    "name": "Arakkuzha Kavala",
    "lat": "9.9788907",
    "lon": "76.5811457"
  },
  {
    "name": "Arakkuzha Moozhi",
    "lat": "9.9345272",
    "lon": "76.5994476"
  },
  {
    "name": "Arakulam",
    "lat": "9.818928",
    "lon": "76.827564"
  },
  {
    "name": "Arakulangara",
    "lat": "11.614402",
    "lon": "75.6251381"
  },
  {
    "name": "Arakulangara Lakhsham veed colony",
    "lat": "11.6133797",
    "lon": "75.6197303"
  },
  {
    "name": "Arakunnam",
    "lat": "9.8863712",
    "lon": "76.4295968"
  },
  {
    "name": "Arakunnam Palli",
    "lat": "9.8867966",
    "lon": "76.4333171"
  },
  {
    "name": "Arakuzha",
    "lat": "9.9292712",
    "lon": "76.6058479"
  },
  {
    "name": "Aralam",
    "lat": "11.9610325",
    "lon": "75.7264423"
  },
  {
    "name": "Aralam Farm",
    "lat": "11.950634",
    "lon": "75.807821"
  },
  {
    "name": "Arallycode Colony",
    "lat": "10.6423348",
    "lon": "76.4646559"
  },
  {
    "name": "Aramala",
    "lat": "9.435628",
    "lon": "76.559136"
  },
  {
    "name": "Aramana",
    "lat": "9.450225",
    "lon": "76.542102"
  },
  {
    "name": "Aramana Padi",
    "lat": "9.9824092",
    "lon": "76.5789249"
  },
  {
    "name": "Aramanapadi",
    "lat": "9.4488472",
    "lon": "76.5434785"
  },
  {
    "name": "Aramanappara",
    "lat": "9.989024",
    "lon": "77.138514"
  },
  {
    "name": "Aramanganam",
    "lat": "12.461785",
    "lon": "75.025051"
  },
  {
    "name": "Aramanganam Colony",
    "lat": "12.4678411",
    "lon": "75.0176099"
  },
  {
    "name": "Aramathumadom",
    "lat": "9.0881366",
    "lon": "76.5743669"
  },
  {
    "name": "Arambol",
    "lat": "11.6022176",
    "lon": "75.7357657"
  },
  {
    "name": "Arambram",
    "lat": "11.3445649",
    "lon": "75.8906062"
  },
  {
    "name": "Aramkottam",
    "lat": "11.897888",
    "lon": "75.33941"
  },
  {
    "name": "Aramvally",
    "lat": "11.6575592",
    "lon": "75.634279"
  },
  {
    "name": "Aranadampadam Bus stop",
    "lat": "11.3844796",
    "lon": "76.2960278"
  },
  {
    "name": "Aranakal",
    "lat": "9.547211",
    "lon": "77.065015"
  },
  {
    "name": "Aranamala Colony",
    "lat": "11.5145522",
    "lon": "76.1150318"
  },
  {
    "name": "Aranappara",
    "lat": "9.502461",
    "lon": "76.668799"
  },
  {
    "name": "Aranattukara",
    "lat": "10.513577777",
    "lon": "76.195366666"
  },
  {
    "name": "Aranattukara ward",
    "lat": "10.5147623",
    "lon": "76.1979219"
  },
  {
    "name": "Arangadath",
    "lat": "11.428496",
    "lon": "75.7042263"
  },
  {
    "name": "Arangadi",
    "lat": "12.3096396",
    "lon": "75.1108137"
  },
  {
    "name": "Arangali",
    "lat": "10.2805071",
    "lon": "76.3294252"
  },
  {
    "name": "Arangam",
    "lat": "12.1991979",
    "lon": "75.4630776"
  },
  {
    "name": "Arangapara Colony",
    "lat": "9.7389754",
    "lon": "76.7430101"
  },
  {
    "name": "Arangod",
    "lat": "11.3726385",
    "lon": "75.9219002"
  },
  {
    "name": "Arangottukara",
    "lat": "10.7641867",
    "lon": "76.2087275"
  },
  {
    "name": "Arangottukara Bus stop",
    "lat": "10.7594192",
    "lon": "76.2013777"
  },
  {
    "name": "Arangu",
    "lat": "12.1142751",
    "lon": "75.5642461"
  },
  {
    "name": "Aranippadam Colony",
    "lat": "10.8689682",
    "lon": "76.4664562"
  },
  {
    "name": "Arankilthazham",
    "lat": "11.3472727",
    "lon": "75.877963"
  },
  {
    "name": "Aranmula",
    "lat": "9.32681",
    "lon": "76.6856956"
  },
  {
    "name": "Aranmula Althara",
    "lat": "9.3263374",
    "lon": "76.6852208"
  },
  {
    "name": "Aranmula East",
    "lat": "9.313707",
    "lon": "76.690848"
  },
  {
    "name": "Aranmula West",
    "lat": "9.319493",
    "lon": "76.684167"
  },
  {
    "name": "Aranthod",
    "lat": "12.5521181",
    "lon": "75.0289392"
  },
  {
    "name": "Arapeedika",
    "lat": "11.4451248",
    "lon": "75.8401948"
  },
  {
    "name": "Arappa",
    "lat": "10.2267876",
    "lon": "76.151353"
  },
  {
    "name": "Arappara Colony",
    "lat": "10.9397276",
    "lon": "76.4895138"
  },
  {
    "name": "Arashimoodu;Arassummoodu",
    "lat": "8.5424713",
    "lon": "76.8853427"
  },
  {
    "name": "Arassery",
    "lat": "9.6615621",
    "lon": "76.3293746"
  },
  {
    "name": "Arassummoodu Bus stop",
    "lat": "8.5424954",
    "lon": "76.8852935"
  },
  {
    "name": "Arasummoodu",
    "lat": "8.5039561",
    "lon": "76.91821"
  },
  {
    "name": "Arathi Veli",
    "lat": "10.1217066",
    "lon": "76.2370765"
  },
  {
    "name": "Arathil",
    "lat": "12.084139",
    "lon": "75.25952"
  },
  {
    "name": "Arathil Paramb",
    "lat": "11.2458849",
    "lon": "75.8813345"
  },
  {
    "name": "Arathipparambu",
    "lat": "12.100969",
    "lon": "75.257853"
  },
  {
    "name": "Arattu Kadavu",
    "lat": "9.6235707",
    "lon": "76.5324635"
  },
  {
    "name": "Arattukadav",
    "lat": "12.4326212",
    "lon": "75.0390565"
  },
  {
    "name": "Arattukadavu",
    "lat": "9.3525874",
    "lon": "76.5925775"
  },
  {
    "name": "Arattukulam",
    "lat": "9.6063878",
    "lon": "76.3020181"
  },
  {
    "name": "Arattukulangara",
    "lat": "9.7505435",
    "lon": "76.4069912"
  },
  {
    "name": "Arattupuzha",
    "lat": "9.2162329",
    "lon": "76.4270038"
  },
  {
    "name": "Arattupuzha Grama Panchayat",
    "lat": "9.1879285",
    "lon": "76.4430965"
  },
  {
    "name": "Arattupuzha North",
    "lat": "10.4228987",
    "lon": "76.2296228"
  },
  {
    "name": "Arattupuzha South",
    "lat": "10.4130432",
    "lon": "76.228745"
  },
  {
    "name": "Arattuthara",
    "lat": "11.8004763",
    "lon": "76.0276658"
  },
  {
    "name": "Arattuvazhi",
    "lat": "9.728058",
    "lon": "76.286576"
  },
  {
    "name": "Arattuvazhy",
    "lat": "9.5050536",
    "lon": "76.3284494"
  },
  {
    "name": "Arattuvazhy Valavu",
    "lat": "9.7276191",
    "lon": "76.2906149"
  },
  {
    "name": "Aratuvatta Colony",
    "lat": "9.1424029",
    "lon": "76.5752381"
  },
  {
    "name": "Aravachal",
    "lat": "12.1992565",
    "lon": "75.2682872"
  },
  {
    "name": "Aravakulam",
    "lat": "9.707093",
    "lon": "76.720054"
  },
  {
    "name": "Aravanchal",
    "lat": "12.211761",
    "lon": "75.29039"
  },
  {
    "name": "Aravankara",
    "lat": "11.106727",
    "lon": "76.052086"
  },
  {
    "name": "Aravukadu",
    "lat": "9.6693894",
    "lon": "76.3041176"
  },
  {
    "name": "Aravupuzha",
    "lat": "9.590318",
    "lon": "76.4984772"
  },
  {
    "name": "Arayakkool",
    "lat": "11.70954",
    "lon": "75.581533"
  },
  {
    "name": "Arayakool",
    "lat": "11.761579",
    "lon": "75.559217"
  },
  {
    "name": "Arayakulam",
    "lat": "11.014956",
    "lon": "75.970556"
  },
  {
    "name": "Arayal Motta",
    "lat": "11.9542308",
    "lon": "75.4917951"
  },
  {
    "name": "Arayalloor",
    "lat": "8.5065923",
    "lon": "76.9957951"
  },
  {
    "name": "Arayalthara",
    "lat": "11.74305",
    "lon": "75.593158"
  },
  {
    "name": "Arayambeth",
    "lat": "11.914285",
    "lon": "75.376892"
  },
  {
    "name": "Arayan Kadappuram",
    "lat": "10.858012",
    "lon": "75.897445"
  },
  {
    "name": "Arayanapoyil",
    "lat": "11.4206429",
    "lon": "75.8189678"
  },
  {
    "name": "Arayangodu",
    "lat": "11.2768988",
    "lon": "75.9632009"
  },
  {
    "name": "Arayanjilimon",
    "lat": "9.412067",
    "lon": "76.90989"
  },
  {
    "name": "Arayankavu",
    "lat": "9.8255035",
    "lon": "76.429971"
  },
  {
    "name": "Arayankod mukkil",
    "lat": "11.2828834",
    "lon": "75.9497294"
  },
  {
    "name": "Arayi",
    "lat": "12.3022835",
    "lon": "75.1082284"
  },
  {
    "name": "Arayi Karthika",
    "lat": "12.3040135",
    "lon": "75.1167095"
  },
  {
    "name": "Arayidath Palam",
    "lat": "11.2583556",
    "lon": "75.7916686"
  },
  {
    "name": "Arayidathpalam",
    "lat": "11.2587385",
    "lon": "75.791413"
  },
  {
    "name": "Arayidathuchira",
    "lat": "11.963573",
    "lon": "75.457607"
  },
  {
    "name": "Areacode East",
    "lat": "11.23091",
    "lon": "76.048788"
  },
  {
    "name": "Areacode West",
    "lat": "11.23497",
    "lon": "76.049988"
  },
  {
    "name": "Areechola",
    "lat": "11.067634",
    "lon": "76.204528"
  },
  {
    "name": "Areeckal",
    "lat": "9.565516",
    "lon": "76.715271"
  },